{
"type": "FeatureCollection",
                                                                                
"features": [
{ "type": "Feature", "id": 11519, "properties": { "pull_date": "1\/6\/12", "latitude": 47.833, "longitude": -95.66, "fire_name": "BOXING DAY FIRE", "fire_number": "MN-MNS-111-061", "area": 750.0, "report_date": "1\/1\/12" }, "geometry": { "type": "Point", "coordinates": [ -95.66, 47.833 ] } }
,
{ "type": "Feature", "id": 11520, "properties": { "pull_date": "1\/6\/12", "latitude": 35.701, "longitude": -94.77, "fire_name": "GOBBLER RIDGE", "fire_number": "OK-NEU-12-30004", "area": 730.0, "report_date": "1\/2\/12" }, "geometry": { "type": "Point", "coordinates": [ -94.77, 35.701 ] } }
,
{ "type": "Feature", "id": 11521, "properties": { "pull_date": "1\/6\/12", "latitude": 36.015, "longitude": -95.146, "fire_name": "SW HIGHGROUNDS", "fire_number": "OK-NEU-12-30006", "area": 200.0, "report_date": "1\/2\/12" }, "geometry": { "type": "Point", "coordinates": [ -95.146, 36.015 ] } }
,
{ "type": "Feature", "id": 11522, "properties": { "pull_date": "1\/6\/12", "latitude": 36.335, "longitude": -96.548, "fire_name": "PAC MAN", "fire_number": "OK-OSA-011125", "area": 2510.0, "report_date": "1\/2\/12" }, "geometry": { "type": "Point", "coordinates": [ -96.548, 36.335 ] } }
,
{ "type": "Feature", "id": 11523, "properties": { "pull_date": "1\/6\/12", "latitude": 35.709, "longitude": -94.768, "fire_name": "DAM-14", "fire_number": "OK-NEU-11-30538", "area": 170.0, "report_date": "1\/1\/12" }, "geometry": { "type": "Point", "coordinates": [ -94.768, 35.709 ] } }
,
{ "type": "Feature", "id": 11524, "properties": { "pull_date": "1\/6\/12", "latitude": 29.678, "longitude": -94.2, "fire_name": "WF HOLIDAY 1 AND 2", "fire_number": "TX-MCR-000001", "area": 8000.0, "report_date": "1\/3\/12" }, "geometry": { "type": "Point", "coordinates": [ -94.2, 29.678 ] } }
,
{ "type": "Feature", "id": 11525, "properties": { "pull_date": "1\/6\/12", "latitude": 34.783, "longitude": -95.225, "fire_name": "HIGHTOP", "fire_number": "OK-ECU-12-20001", "area": 450.0, "report_date": "1\/4\/12" }, "geometry": { "type": "Point", "coordinates": [ -95.225, 34.783 ] } }
,
{ "type": "Feature", "id": 11526, "properties": { "pull_date": "1\/6\/12", "latitude": 48.531, "longitude": -112.963, "fire_name": "WYE FIRE", "fire_number": "MT-BFA-0001", "area": 12000.0, "report_date": "1\/5\/12" }, "geometry": { "type": "Point", "coordinates": [ -112.963, 48.531 ] } }
,
{ "type": "Feature", "id": 11527, "properties": { "pull_date": "1\/6\/12", "latitude": 48.615, "longitude": -112.994, "fire_name": "BOY", "fire_number": "MT-BFA-0002", "area": 6000.0, "report_date": "1\/5\/12" }, "geometry": { "type": "Point", "coordinates": [ -112.994, 48.615 ] } }
,
{ "type": "Feature", "id": 11528, "properties": { "pull_date": "1\/6\/12", "latitude": 30.393, "longitude": -82.439, "fire_name": "BIG CAMP", "fire_number": "FL-FNF-004002", "area": 553.0, "report_date": "1\/5\/12" }, "geometry": { "type": "Point", "coordinates": [ -82.439, 30.393 ] } }
,
{ "type": "Feature", "id": 11529, "properties": { "pull_date": "1\/13\/12", "latitude": 36.335, "longitude": -96.548, "fire_name": "PAC MAN", "fire_number": "OK-OSA-011125", "area": 2510.0, "report_date": "1\/2\/12" }, "geometry": { "type": "Point", "coordinates": [ -96.548, 36.335 ] } }
,
{ "type": "Feature", "id": 11530, "properties": { "pull_date": "1\/13\/12", "latitude": 30.393, "longitude": -82.439, "fire_name": "BIG CAMP", "fire_number": "FL-FNF-004002", "area": 553.0, "report_date": "1\/5\/12" }, "geometry": { "type": "Point", "coordinates": [ -82.439, 30.393 ] } }
,
{ "type": "Feature", "id": 11531, "properties": { "pull_date": "1\/13\/12", "latitude": 36.234, "longitude": -95.111, "fire_name": "PUMPBACK", "fire_number": "OK-NEU-12-30023", "area": 160.0, "report_date": "1\/8\/12" }, "geometry": { "type": "Point", "coordinates": [ -95.111, 36.234 ] } }
,
{ "type": "Feature", "id": 11532, "properties": { "pull_date": "1\/13\/12", "latitude": 30.276, "longitude": -85.001, "fire_name": "YANKEE", "fire_number": "FL-FNF-012013", "area": 2614.0, "report_date": "1\/9\/12" }, "geometry": { "type": "Point", "coordinates": [ -85.001, 30.276 ] } }
,
{ "type": "Feature", "id": 11533, "properties": { "pull_date": "1\/13\/12", "latitude": 30.315, "longitude": -94.605, "fire_name": "WOODVILLE-0015", "fire_number": "TX-TXS-012018", "area": 400.0, "report_date": "1\/9\/12" }, "geometry": { "type": "Point", "coordinates": [ -94.605, 30.315 ] } }
,
{ "type": "Feature", "id": 11534, "properties": { "pull_date": "1\/13\/12", "latitude": 37.733, "longitude": -91.138, "fire_name": "HARDWAY", "fire_number": "MO-MTF-000009", "area": 130.0, "report_date": "1\/10\/12" }, "geometry": { "type": "Point", "coordinates": [ -91.138, 37.733 ] } }
,
{ "type": "Feature", "id": 11535, "properties": { "pull_date": "1\/13\/12", "latitude": 34.769, "longitude": -79.197, "fire_name": "FLAT ROCK ROAD", "fire_number": "NC-NCS-12001", "area": 387.0, "report_date": "1\/10\/12" }, "geometry": { "type": "Point", "coordinates": [ -79.197, 34.769 ] } }
,
{ "type": "Feature", "id": 11536, "properties": { "pull_date": "1\/13\/12", "latitude": 48.531, "longitude": -112.963, "fire_name": "WYE FIRE", "fire_number": "MT-BFA-0001", "area": 12000.0, "report_date": "1\/5\/12" }, "geometry": { "type": "Point", "coordinates": [ -112.963, 48.531 ] } }
,
{ "type": "Feature", "id": 11537, "properties": { "pull_date": "1\/13\/12", "latitude": 48.615, "longitude": -112.994, "fire_name": "BOY", "fire_number": "MT-BFA-0002", "area": 6000.0, "report_date": "1\/5\/12" }, "geometry": { "type": "Point", "coordinates": [ -112.994, 48.615 ] } }
,
{ "type": "Feature", "id": 11538, "properties": { "pull_date": "1\/20\/12", "latitude": 30.276, "longitude": -85.001, "fire_name": "YANKEE", "fire_number": "FL-FNF-012013", "area": 2614.0, "report_date": "1\/9\/12" }, "geometry": { "type": "Point", "coordinates": [ -85.001, 30.276 ] } }
,
{ "type": "Feature", "id": 11539, "properties": { "pull_date": "1\/20\/12", "latitude": 33.603, "longitude": -102.565, "fire_name": "OXY OFFICE", "fire_number": "TX-TXS-012019", "area": 681.0, "report_date": "1\/16\/12" }, "geometry": { "type": "Point", "coordinates": [ -102.565, 33.603 ] } }
,
{ "type": "Feature", "id": 11540, "properties": { "pull_date": "1\/20\/12", "latitude": 30.155, "longitude": -85.071, "fire_name": "LARKIN", "fire_number": "FL-FNF-001008", "area": 338.0, "report_date": "1\/16\/12" }, "geometry": { "type": "Point", "coordinates": [ -85.071, 30.155 ] } }
,
{ "type": "Feature", "id": 11541, "properties": { "pull_date": "1\/20\/12", "latitude": 29.867, "longitude": -83.104, "fire_name": "BENNETT ROAD", "fire_number": "FL-FLS-2012-05-0024", "area": 300.0, "report_date": "1\/17\/12" }, "geometry": { "type": "Point", "coordinates": [ -83.104, 29.867 ] } }
,
{ "type": "Feature", "id": 11542, "properties": { "pull_date": "1\/20\/12", "latitude": 36.335, "longitude": -96.548, "fire_name": "PAC MAN", "fire_number": "OK-OSA-011125", "area": 2510.0, "report_date": "1\/2\/12" }, "geometry": { "type": "Point", "coordinates": [ -96.548, 36.335 ] } }
,
{ "type": "Feature", "id": 11543, "properties": { "pull_date": "1\/20\/12", "latitude": 39.317, "longitude": -119.818, "fire_name": "WASHOE", "fire_number": "NV-RNOX-0011", "area": 3000.0, "report_date": "1\/19\/12" }, "geometry": { "type": "Point", "coordinates": [ -119.818, 39.317 ] } }
,
{ "type": "Feature", "id": 11544, "properties": { "pull_date": "1\/27\/12", "latitude": 29.867, "longitude": -83.104, "fire_name": "BENNETT ROAD", "fire_number": "FL-FLS-2012-05-0024", "area": 300.0, "report_date": "1\/17\/12" }, "geometry": { "type": "Point", "coordinates": [ -83.104, 29.867 ] } }
,
{ "type": "Feature", "id": 11545, "properties": { "pull_date": "1\/27\/12", "latitude": 39.317, "longitude": -119.818, "fire_name": "WASHOE", "fire_number": "NV-RNOX-0011", "area": 3000.0, "report_date": "1\/19\/12" }, "geometry": { "type": "Point", "coordinates": [ -119.818, 39.317 ] } }
,
{ "type": "Feature", "id": 11546, "properties": { "pull_date": "1\/27\/12", "latitude": 35.493, "longitude": -101.783, "fire_name": "CHICKEN CREEK", "fire_number": "TX-TXS-012020", "area": 4000.0, "report_date": "1\/22\/12" }, "geometry": { "type": "Point", "coordinates": [ -101.783, 35.493 ] } }
,
{ "type": "Feature", "id": 11547, "properties": { "pull_date": "1\/27\/12", "latitude": 27.831, "longitude": -81.864, "fire_name": "POLK FIRE", "fire_number": "FL-FLS-2012-14-0036", "area": 600.0, "report_date": "1\/20\/12" }, "geometry": { "type": "Point", "coordinates": [ -81.864, 27.831 ] } }
,
{ "type": "Feature", "id": 11548, "properties": { "pull_date": "1\/27\/12", "latitude": 35.481, "longitude": -101.778, "fire_name": "CHICKEN", "fire_number": "TX-LAP-000014", "area": 2228.0, "report_date": "1\/23\/12" }, "geometry": { "type": "Point", "coordinates": [ -101.778, 35.481 ] } }
,
{ "type": "Feature", "id": 11549, "properties": { "pull_date": "1\/27\/12", "latitude": 32.576, "longitude": -108.34, "fire_name": "WHIPPY", "fire_number": "NM-N3S-000001", "area": 1369.0, "report_date": "1\/23\/12" }, "geometry": { "type": "Point", "coordinates": [ -108.34, 32.576 ] } }
,
{ "type": "Feature", "id": 11550, "properties": { "pull_date": "1\/27\/12", "latitude": 34.776, "longitude": -95.623, "fire_name": "NEW STATE WEST", "fire_number": "OK-ECU-12-20014", "area": 550.0, "report_date": "1\/23\/12" }, "geometry": { "type": "Point", "coordinates": [ -95.623, 34.776 ] } }
,
{ "type": "Feature", "id": 11551, "properties": { "pull_date": "1\/27\/12", "latitude": 27.103, "longitude": -80.923, "fire_name": "INDIAN PRAIRIE", "fire_number": "FL-FLS-2011-16-0805", "area": 2300.0, "report_date": "1\/24\/12" }, "geometry": { "type": "Point", "coordinates": [ -80.923, 27.103 ] } }
,
{ "type": "Feature", "id": 11552, "properties": { "pull_date": "2\/3\/12", "latitude": 29.571, "longitude": -81.717, "fire_name": "CAMP ROAD", "fire_number": "FL-FLS-2012-08-0062", "area": 300.0, "report_date": "1\/30\/12" }, "geometry": { "type": "Point", "coordinates": [ -81.717, 29.571 ] } }
,
{ "type": "Feature", "id": 11553, "properties": { "pull_date": "2\/3\/12", "latitude": 35.724, "longitude": -94.553, "fire_name": "OZARK PLATEAU", "fire_number": "OK-NEU-12-30057", "area": 160.0, "report_date": "1\/30\/12" }, "geometry": { "type": "Point", "coordinates": [ -94.553, 35.724 ] } }
,
{ "type": "Feature", "id": 11554, "properties": { "pull_date": "2\/3\/12", "latitude": 37.571, "longitude": -82.944, "fire_name": "ROUTE 7 FIRE", "fire_number": "KY-KYS-12-9002", "area": 175.0, "report_date": "2\/1\/12" }, "geometry": { "type": "Point", "coordinates": [ -82.944, 37.571 ] } }
,
{ "type": "Feature", "id": 11555, "properties": { "pull_date": "2\/3\/12", "latitude": 33.773, "longitude": -85.647, "fire_name": "SMOKE CHASER", "fire_number": "AL-ALF-120501", "area": 870.0, "report_date": "2\/2\/12" }, "geometry": { "type": "Point", "coordinates": [ -85.647, 33.773 ] } }
,
{ "type": "Feature", "id": 11556, "properties": { "pull_date": "2\/3\/12", "latitude": 37.368, "longitude": -83.2, "fire_name": "LOST MTN #1", "fire_number": "KY-KYS-12-2001", "area": 100.0, "report_date": "2\/2\/12" }, "geometry": { "type": "Point", "coordinates": [ -83.2, 37.368 ] } }
,
{ "type": "Feature", "id": 11557, "properties": { "pull_date": "2\/10\/12", "latitude": 35.724, "longitude": -94.553, "fire_name": "OZARK PLATEAU", "fire_number": "OK-NEU-12-30057", "area": 160.0, "report_date": "1\/30\/12" }, "geometry": { "type": "Point", "coordinates": [ -94.553, 35.724 ] } }
,
{ "type": "Feature", "id": 11558, "properties": { "pull_date": "2\/17\/12", "latitude": 30.359, "longitude": -84.599, "fire_name": "GRAND BAY", "fire_number": "FL-FNF-012016", "area": 793.0, "report_date": "2\/14\/12" }, "geometry": { "type": "Point", "coordinates": [ -84.599, 30.359 ] } }
,
{ "type": "Feature", "id": 11559, "properties": { "pull_date": "2\/17\/12", "latitude": 27.682, "longitude": -81.986, "fire_name": "AGROCK", "fire_number": "FL-FLS-2012-14-0088", "area": 600.0, "report_date": "2\/15\/12" }, "geometry": { "type": "Point", "coordinates": [ -81.986, 27.682 ] } }
,
{ "type": "Feature", "id": 11560, "properties": { "pull_date": "2\/17\/12", "latitude": 31.902, "longitude": -110.644, "fire_name": "HILTON", "fire_number": "AZ-SAD-000062", "area": 460.0, "report_date": "2\/14\/12" }, "geometry": { "type": "Point", "coordinates": [ -110.644, 31.902 ] } }
,
{ "type": "Feature", "id": 11561, "properties": { "pull_date": "2\/24\/12", "latitude": 28.549, "longitude": -81.809, "fire_name": "THOMPSON ROAD", "fire_number": "FL-FLS-2012-11-0154", "area": 1200.0, "report_date": "2\/20\/12" }, "geometry": { "type": "Point", "coordinates": [ -81.809, 28.549 ] } }
,
{ "type": "Feature", "id": 11562, "properties": { "pull_date": "2\/24\/12", "latitude": 28.532, "longitude": -80.899, "fire_name": "BRIGHTHOUSE", "fire_number": "FL-FLS-2012-12-0109", "area": 350.0, "report_date": "2\/20\/12" }, "geometry": { "type": "Point", "coordinates": [ -80.899, 28.532 ] } }
,
{ "type": "Feature", "id": 11563, "properties": { "pull_date": "2\/24\/12", "latitude": 30.359, "longitude": -84.599, "fire_name": "GRAND BAY", "fire_number": "FL-FNF-012016", "area": 793.0, "report_date": "2\/20\/12" }, "geometry": { "type": "Point", "coordinates": [ -84.599, 30.359 ] } }
,
{ "type": "Feature", "id": 11564, "properties": { "pull_date": "2\/24\/12", "latitude": 47.38, "longitude": -101.396, "fire_name": "KRIEGER ", "fire_number": "ND-KRP-1215", "area": 610.0, "report_date": "2\/21\/12" }, "geometry": { "type": "Point", "coordinates": [ -101.396, 47.38 ] } }
,
{ "type": "Feature", "id": 11565, "properties": { "pull_date": "2\/24\/12", "latitude": 34.105, "longitude": -109.415, "fire_name": "RANCH", "fire_number": "AZ-A2S-120104", "area": 930.0, "report_date": "2\/22\/12" }, "geometry": { "type": "Point", "coordinates": [ -109.415, 34.105 ] } }
,
{ "type": "Feature", "id": 11566, "properties": { "pull_date": "3\/2\/12", "latitude": 33.334, "longitude": -92.121, "fire_name": "PEANUT HILL RD FIRE", "fire_number": "AR-ARS-17_D4", "area": 124.0, "report_date": "2\/28\/12" }, "geometry": { "type": "Point", "coordinates": [ -92.121, 33.334 ] } }
,
{ "type": "Feature", "id": 11567, "properties": { "pull_date": "3\/2\/12", "latitude": 36.022, "longitude": -94.783, "fire_name": "CHAFFIN", "fire_number": "OK-NEU-12-30085", "area": 400.0, "report_date": "2\/26\/12" }, "geometry": { "type": "Point", "coordinates": [ -94.783, 36.022 ] } }
,
{ "type": "Feature", "id": 11568, "properties": { "pull_date": "3\/2\/12", "latitude": 35.599, "longitude": -94.86, "fire_name": "USSERY MOUNTAIN", "fire_number": "OK-NEU-12-30084", "area": 130.0, "report_date": "2\/26\/12" }, "geometry": { "type": "Point", "coordinates": [ -94.86, 35.599 ] } }
,
{ "type": "Feature", "id": 11569, "properties": { "pull_date": "3\/2\/12", "latitude": 28.561, "longitude": -80.893, "fire_name": "NO GO FIRE", "fire_number": "FL-SJR-GM6L", "area": 1712.0, "report_date": "2\/26\/12" }, "geometry": { "type": "Point", "coordinates": [ -80.893, 28.561 ] } }
,
{ "type": "Feature", "id": 11570, "properties": { "pull_date": "3\/2\/12", "latitude": 30.359, "longitude": -84.599, "fire_name": "GRAND BAY", "fire_number": "FL-FNF-012016", "area": 793.0, "report_date": "2\/26\/12" }, "geometry": { "type": "Point", "coordinates": [ -84.599, 30.359 ] } }
,
{ "type": "Feature", "id": 11571, "properties": { "pull_date": "3\/2\/12", "latitude": 43.578, "longitude": -100.844, "fire_name": "TOWER", "fire_number": "SD-RBA-120065", "area": 4723.0, "report_date": "2\/27\/12" }, "geometry": { "type": "Point", "coordinates": [ -100.844, 43.578 ] } }
,
{ "type": "Feature", "id": 11572, "properties": { "pull_date": "3\/2\/12", "latitude": 37.871, "longitude": -93.008, "fire_name": "HIGHWAY PP", "fire_number": "MO-MOS-120001", "area": 227.0, "report_date": "2\/28\/12" }, "geometry": { "type": "Point", "coordinates": [ -93.008, 37.871 ] } }
,
{ "type": "Feature", "id": 11573, "properties": { "pull_date": "3\/2\/12", "latitude": 36.619, "longitude": -83.025, "fire_name": "GREENHORN", "fire_number": "VA-VAS-12060011", "area": 800.0, "report_date": "2\/28\/12" }, "geometry": { "type": "Point", "coordinates": [ -83.025, 36.619 ] } }
,
{ "type": "Feature", "id": 11574, "properties": { "pull_date": "3\/2\/12", "latitude": 35.218, "longitude": -95.432, "fire_name": "DEER RUN", "fire_number": "OK-ECU-12-20029", "area": 128.0, "report_date": "2\/28\/12" }, "geometry": { "type": "Point", "coordinates": [ -95.432, 35.218 ] } }
,
{ "type": "Feature", "id": 11575, "properties": { "pull_date": "3\/2\/12", "latitude": 35.599, "longitude": -94.86, "fire_name": "USSERY MOUNTAIN", "fire_number": "OK-NEU-12-30084", "area": 130.0, "report_date": "2\/28\/12" }, "geometry": { "type": "Point", "coordinates": [ -94.86, 35.599 ] } }
,
{ "type": "Feature", "id": 11576, "properties": { "pull_date": "3\/2\/12", "latitude": 35.222, "longitude": -84.173, "fire_name": "JOE TOP", "fire_number": "NC-NCF-120020", "area": 724.0, "report_date": "2\/28\/12" }, "geometry": { "type": "Point", "coordinates": [ -84.173, 35.222 ] } }
,
{ "type": "Feature", "id": 11577, "properties": { "pull_date": "3\/2\/12", "latitude": 36.215, "longitude": -96.151, "fire_name": "SNAG FIELD", "fire_number": "OK-NEU-12-40301", "area": 1770.0, "report_date": "2\/28\/12" }, "geometry": { "type": "Point", "coordinates": [ -96.151, 36.215 ] } }
,
{ "type": "Feature", "id": 11578, "properties": { "pull_date": "3\/2\/12", "latitude": 37.766, "longitude": -91.193, "fire_name": "BILL HOLLOW", "fire_number": "MO-MTF-000022", "area": 160.0, "report_date": "3\/1\/12" }, "geometry": { "type": "Point", "coordinates": [ -91.193, 37.766 ] } }
,
{ "type": "Feature", "id": 11579, "properties": { "pull_date": "3\/2\/12", "latitude": 35.849, "longitude": -92.749, "fire_name": "CR 5", "fire_number": "AR-ARS-D7", "area": 232.0, "report_date": "2\/28\/12" }, "geometry": { "type": "Point", "coordinates": [ -92.749, 35.849 ] } }
,
{ "type": "Feature", "id": 11580, "properties": { "pull_date": "3\/2\/12", "latitude": 36.123, "longitude": -91.559, "fire_name": "BOSS GOBLER FARM", "fire_number": "AR-ARS-051_D8", "area": 150.0, "report_date": "3\/1\/12" }, "geometry": { "type": "Point", "coordinates": [ -91.559, 36.123 ] } }
,
{ "type": "Feature", "id": 11581, "properties": { "pull_date": "3\/9\/12", "latitude": 36.816, "longitude": -92.858, "fire_name": "ONION 1", "fire_number": "MO-MTF-000030", "area": 600.0, "report_date": "3\/4\/12" }, "geometry": { "type": "Point", "coordinates": [ -92.858, 36.816 ] } }
,
{ "type": "Feature", "id": 11582, "properties": { "pull_date": "3\/9\/12", "latitude": 37.459, "longitude": -90.468, "fire_name": "MARLOW MOUNTAIN", "fire_number": "MO-MTF-000029", "area": 400.0, "report_date": "3\/4\/12" }, "geometry": { "type": "Point", "coordinates": [ -90.468, 37.459 ] } }
,
{ "type": "Feature", "id": 11583, "properties": { "pull_date": "3\/9\/12", "latitude": 36.951, "longitude": -92.271, "fire_name": "CLIFTY CREEK", "fire_number": "MO-MTF-000033", "area": 260.0, "report_date": "3\/5\/12" }, "geometry": { "type": "Point", "coordinates": [ -92.271, 36.951 ] } }
,
{ "type": "Feature", "id": 11584, "properties": { "pull_date": "3\/9\/12", "latitude": 36.341, "longitude": -94.906, "fire_name": "SOLDIER HOLLOW", "fire_number": "OK-NEU-12-30150", "area": 750.0, "report_date": "3\/4\/12" }, "geometry": { "type": "Point", "coordinates": [ -94.906, 36.341 ] } }
,
{ "type": "Feature", "id": 11585, "properties": { "pull_date": "3\/9\/12", "latitude": 35.609, "longitude": -94.596, "fire_name": "SHALE PIT", "fire_number": "OK-NEU-12-30149", "area": 350.0, "report_date": "3\/4\/12" }, "geometry": { "type": "Point", "coordinates": [ -94.596, 35.609 ] } }
,
{ "type": "Feature", "id": 11586, "properties": { "pull_date": "3\/9\/12", "latitude": 35.745, "longitude": -94.599, "fire_name": "SOAP MT", "fire_number": "OK-NEU-12-30141", "area": 115.0, "report_date": "3\/4\/12" }, "geometry": { "type": "Point", "coordinates": [ -94.599, 35.745 ] } }
,
{ "type": "Feature", "id": 11587, "properties": { "pull_date": "3\/9\/12", "latitude": 35.321, "longitude": -96.012, "fire_name": "BARNETT", "fire_number": "OK-OMA-012018", "area": 183.0, "report_date": "3\/4\/12" }, "geometry": { "type": "Point", "coordinates": [ -96.012, 35.321 ] } }
,
{ "type": "Feature", "id": 11588, "properties": { "pull_date": "3\/9\/12", "latitude": 35.89, "longitude": -96.538, "fire_name": "CANYON CREEK", "fire_number": "OK-OMA-012016", "area": 928.0, "report_date": "3\/4\/12" }, "geometry": { "type": "Point", "coordinates": [ -96.538, 35.89 ] } }
,
{ "type": "Feature", "id": 11589, "properties": { "pull_date": "3\/9\/12", "latitude": 35.569, "longitude": -94.593, "fire_name": "BIG COUNTRY", "fire_number": "OK-NEU-12-30135", "area": 400.0, "report_date": "3\/3\/12" }, "geometry": { "type": "Point", "coordinates": [ -94.593, 35.569 ] } }
,
{ "type": "Feature", "id": 11590, "properties": { "pull_date": "3\/9\/12", "latitude": 35.602, "longitude": -94.77, "fire_name": "DRY CREEK", "fire_number": "OK-NEU-12-30134", "area": 200.0, "report_date": "3\/3\/12" }, "geometry": { "type": "Point", "coordinates": [ -94.77, 35.602 ] } }
,
{ "type": "Feature", "id": 11591, "properties": { "pull_date": "3\/9\/12", "latitude": 35.647, "longitude": -94.53, "fire_name": "SOUTH", "fire_number": "OK-NEU-12-30126", "area": 300.0, "report_date": "3\/3\/12" }, "geometry": { "type": "Point", "coordinates": [ -94.53, 35.647 ] } }
,
{ "type": "Feature", "id": 11592, "properties": { "pull_date": "3\/9\/12", "latitude": 35.643, "longitude": -94.519, "fire_name": "ROUND MT.", "fire_number": "OK-NEU-12-30130", "area": 230.0, "report_date": "3\/3\/12" }, "geometry": { "type": "Point", "coordinates": [ -94.519, 35.643 ] } }
,
{ "type": "Feature", "id": 11593, "properties": { "pull_date": "3\/9\/12", "latitude": 28.44, "longitude": -82.029, "fire_name": "CABBAGE HEAD", "fire_number": "FL-FLS-2012-11-0184", "area": 235.0, "report_date": "3\/3\/12" }, "geometry": { "type": "Point", "coordinates": [ -82.029, 28.44 ] } }
,
{ "type": "Feature", "id": 11594, "properties": { "pull_date": "3\/9\/12", "latitude": 30.515, "longitude": -82.235, "fire_name": "BAXTER GRADE", "fire_number": "FL-FLS-2012-06-0394", "area": 300.0, "report_date": "3\/3\/12" }, "geometry": { "type": "Point", "coordinates": [ -82.235, 30.515 ] } }
,
{ "type": "Feature", "id": 11595, "properties": { "pull_date": "3\/9\/12", "latitude": 35.987, "longitude": -92.802, "fire_name": "SMART BLUFF", "fire_number": "AR-BUP-1200013", "area": 160.0, "report_date": "3\/2\/12" }, "geometry": { "type": "Point", "coordinates": [ -92.802, 35.987 ] } }
,
{ "type": "Feature", "id": 11596, "properties": { "pull_date": "3\/9\/12", "latitude": 34.882, "longitude": -94.968, "fire_name": "WILL HOLLER", "fire_number": "OK-ECU-12-20044", "area": 600.0, "report_date": "3\/5\/12" }, "geometry": { "type": "Point", "coordinates": [ -94.968, 34.882 ] } }
,
{ "type": "Feature", "id": 11597, "properties": { "pull_date": "3\/9\/12", "latitude": 36.353, "longitude": -94.849, "fire_name": "CONDE", "fire_number": "OK-NEU-12-30158", "area": 375.0, "report_date": "3\/5\/12" }, "geometry": { "type": "Point", "coordinates": [ -94.849, 36.353 ] } }
,
{ "type": "Feature", "id": 11598, "properties": { "pull_date": "3\/9\/12", "latitude": 35.708, "longitude": -95.009, "fire_name": "SELLERS MT.", "fire_number": "OK-NEU-12-30167", "area": 300.0, "report_date": "3\/5\/12" }, "geometry": { "type": "Point", "coordinates": [ -95.009, 35.708 ] } }
,
{ "type": "Feature", "id": 11599, "properties": { "pull_date": "3\/9\/12", "latitude": 37.766, "longitude": -91.193, "fire_name": "BILL HOLLOW", "fire_number": "MO-MTF-000022", "area": 160.0, "report_date": "3\/4\/12" }, "geometry": { "type": "Point", "coordinates": [ -91.193, 37.766 ] } }
,
{ "type": "Feature", "id": 11600, "properties": { "pull_date": "3\/9\/12", "latitude": 36.215, "longitude": -96.151, "fire_name": "SNAG FIELD", "fire_number": "OK-NEU-12-40301", "area": 1770.0, "report_date": "3\/2\/12" }, "geometry": { "type": "Point", "coordinates": [ -96.151, 36.215 ] } }
,
{ "type": "Feature", "id": 11601, "properties": { "pull_date": "3\/9\/12", "latitude": 30.359, "longitude": -84.599, "fire_name": "GRAND BAY", "fire_number": "FL-FNF-012016", "area": 793.0, "report_date": "3\/4\/12" }, "geometry": { "type": "Point", "coordinates": [ -84.599, 30.359 ] } }
,
{ "type": "Feature", "id": 11602, "properties": { "pull_date": "3\/9\/12", "latitude": 34.968, "longitude": -95.051, "fire_name": "REDOAK PEAK", "fire_number": "OK-ECU-12-20043", "area": 1200.0, "report_date": "3\/6\/12" }, "geometry": { "type": "Point", "coordinates": [ -95.051, 34.968 ] } }
,
{ "type": "Feature", "id": 11603, "properties": { "pull_date": "3\/9\/12", "latitude": 33.21, "longitude": -83.791, "fire_name": "SMITH MILL", "fire_number": "GA-CHF-120011", "area": 301.0, "report_date": "3\/6\/12" }, "geometry": { "type": "Point", "coordinates": [ -83.791, 33.21 ] } }
,
{ "type": "Feature", "id": 11604, "properties": { "pull_date": "3\/9\/12", "latitude": 35.622, "longitude": -94.669, "fire_name": "WALKER", "fire_number": "OK-NEU-12-30176", "area": 350.0, "report_date": "3\/6\/12" }, "geometry": { "type": "Point", "coordinates": [ -94.669, 35.622 ] } }
,
{ "type": "Feature", "id": 11605, "properties": { "pull_date": "3\/9\/12", "latitude": 35.706, "longitude": -95.009, "fire_name": "SOUTH SELLERS MT.", "fire_number": "OK-NEU-12-30178", "area": 300.0, "report_date": "3\/6\/12" }, "geometry": { "type": "Point", "coordinates": [ -95.009, 35.706 ] } }
,
{ "type": "Feature", "id": 11606, "properties": { "pull_date": "3\/9\/12", "latitude": 36.258, "longitude": -94.865, "fire_name": "MARBLE FIELD PLANTAION", "fire_number": "OK-NEU-12-30179", "area": 500.0, "report_date": "3\/6\/12" }, "geometry": { "type": "Point", "coordinates": [ -94.865, 36.258 ] } }
,
{ "type": "Feature", "id": 11607, "properties": { "pull_date": "3\/9\/12", "latitude": 35.722, "longitude": -95.018, "fire_name": "WEST SELLERS MT.", "fire_number": "OK-NEU-12-30180", "area": 250.0, "report_date": "3\/7\/12" }, "geometry": { "type": "Point", "coordinates": [ -95.018, 35.722 ] } }
,
{ "type": "Feature", "id": 11608, "properties": { "pull_date": "3\/9\/12", "latitude": 37.081, "longitude": -90.374, "fire_name": "HARPER HOLLOW", "fire_number": "MO-MTF-000040", "area": 130.0, "report_date": "3\/6\/12" }, "geometry": { "type": "Point", "coordinates": [ -90.374, 37.081 ] } }
,
{ "type": "Feature", "id": 11609, "properties": { "pull_date": "3\/9\/12", "latitude": 34.55, "longitude": -95.964, "fire_name": "BUTTERFIELD", "fire_number": "OK-SEU-12-10032", "area": 480.0, "report_date": "3\/7\/12" }, "geometry": { "type": "Point", "coordinates": [ -95.964, 34.55 ] } }
,
{ "type": "Feature", "id": 11610, "properties": { "pull_date": "3\/9\/12", "latitude": 33.922, "longitude": -96.802, "fire_name": "CHRISTEN CAMP", "fire_number": "OK-SEU-12-41007", "area": 700.0, "report_date": "3\/7\/12" }, "geometry": { "type": "Point", "coordinates": [ -96.802, 33.922 ] } }
,
{ "type": "Feature", "id": 11611, "properties": { "pull_date": "3\/9\/12", "latitude": 35.032, "longitude": -95.234, "fire_name": "SMOKESTACK", "fire_number": "OK-OKS-12-20059", "area": 410.0, "report_date": "3\/7\/12" }, "geometry": { "type": "Point", "coordinates": [ -95.234, 35.032 ] } }
,
{ "type": "Feature", "id": 11612, "properties": { "pull_date": "3\/9\/12", "latitude": 35.791, "longitude": -92.606, "fire_name": "HENDERSON POINT", "fire_number": "AR-ARS-58_D7", "area": 367.0, "report_date": "3\/2\/12" }, "geometry": { "type": "Point", "coordinates": [ -92.606, 35.791 ] } }
,
{ "type": "Feature", "id": 11613, "properties": { "pull_date": "3\/9\/12", "latitude": 35.04, "longitude": -95.062, "fire_name": "RYANS PEAK", "fire_number": "OK-OKS-12-B20053", "area": 900.0, "report_date": "3\/7\/12" }, "geometry": { "type": "Point", "coordinates": [ -95.062, 35.04 ] } }
,
{ "type": "Feature", "id": 11614, "properties": { "pull_date": "3\/9\/12", "latitude": 29.337, "longitude": -82.829, "fire_name": "CANNON ROAD", "fire_number": "FL-FLS-2012-08-0162", "area": 225.0, "report_date": "3\/7\/12" }, "geometry": { "type": "Point", "coordinates": [ -82.829, 29.337 ] } }
,
{ "type": "Feature", "id": 11615, "properties": { "pull_date": "3\/9\/12", "latitude": 35.741, "longitude": -96.45, "fire_name": "HILL", "fire_number": "OK-OMA-012023", "area": 1500.0, "report_date": "3\/7\/12" }, "geometry": { "type": "Point", "coordinates": [ -96.45, 35.741 ] } }
,
{ "type": "Feature", "id": 11616, "properties": { "pull_date": "3\/9\/12", "latitude": 35.818, "longitude": -95.952, "fire_name": "SPANISH PEAK", "fire_number": "OK-OMA-012022", "area": 4058.0, "report_date": "3\/7\/12" }, "geometry": { "type": "Point", "coordinates": [ -95.952, 35.818 ] } }
,
{ "type": "Feature", "id": 11617, "properties": { "pull_date": "3\/9\/12", "latitude": 26.041, "longitude": -81.264, "fire_name": "DEEP LAKE", "fire_number": "FL-BCP-12018", "area": 3000.0, "report_date": "3\/7\/12" }, "geometry": { "type": "Point", "coordinates": [ -81.264, 26.041 ] } }
,
{ "type": "Feature", "id": 11618, "properties": { "pull_date": "3\/9\/12", "latitude": 37.559, "longitude": -90.961, "fire_name": "BRUSHY CREEK", "fire_number": "MO-MTF-000045", "area": 120.0, "report_date": "3\/7\/12" }, "geometry": { "type": "Point", "coordinates": [ -90.961, 37.559 ] } }
,
{ "type": "Feature", "id": 11619, "properties": { "pull_date": "3\/9\/12", "latitude": 37.612, "longitude": -92.038, "fire_name": "BLOOMING ROSE", "fire_number": "MO-MTF-000049", "area": 150.0, "report_date": "3\/7\/12" }, "geometry": { "type": "Point", "coordinates": [ -92.038, 37.612 ] } }
,
{ "type": "Feature", "id": 11620, "properties": { "pull_date": "3\/9\/12", "latitude": 42.787, "longitude": -100.853, "fire_name": "NIOBRARA", "fire_number": "NE-NES-120079", "area": 500.0, "report_date": "3\/6\/12" }, "geometry": { "type": "Point", "coordinates": [ -100.853, 42.787 ] } }
,
{ "type": "Feature", "id": 11621, "properties": { "pull_date": "3\/9\/12", "latitude": 31.787, "longitude": -111.6, "fire_name": "BABO", "fire_number": "AZ-PPA-000096", "area": 450.0, "report_date": "3\/8\/12" }, "geometry": { "type": "Point", "coordinates": [ -111.6, 31.787 ] } }
,
{ "type": "Feature", "id": 11622, "properties": { "pull_date": "3\/9\/12", "latitude": 35.928, "longitude": -92.879, "fire_name": "QUILTING BEE", "fire_number": "AR-OZF-012036", "area": 218.0, "report_date": "3\/3\/12" }, "geometry": { "type": "Point", "coordinates": [ -92.879, 35.928 ] } }
,
{ "type": "Feature", "id": 11623, "properties": { "pull_date": "3\/9\/12", "latitude": 36.027, "longitude": -92.475, "fire_name": "TURKEY PEN SPRINGS", "fire_number": "AR-ARS-D7_66", "area": 110.0, "report_date": "3\/2\/12" }, "geometry": { "type": "Point", "coordinates": [ -92.475, 36.027 ] } }
,
{ "type": "Feature", "id": 11624, "properties": { "pull_date": "3\/9\/12", "latitude": 36.08, "longitude": -92.879, "fire_name": "PINDALL RIDGE", "fire_number": "AR-ARS-62_D7", "area": 114.0, "report_date": "3\/2\/12" }, "geometry": { "type": "Point", "coordinates": [ -92.879, 36.08 ] } }
,
{ "type": "Feature", "id": 11625, "properties": { "pull_date": "3\/9\/12", "latitude": 36.403, "longitude": -91.946, "fire_name": "BROWN'S CAHPEL", "fire_number": "AR-ARS-D8-104", "area": 285.0, "report_date": "3\/7\/12" }, "geometry": { "type": "Point", "coordinates": [ -91.946, 36.403 ] } }
,
{ "type": "Feature", "id": 11626, "properties": { "pull_date": "3\/16\/12", "latitude": 26.041, "longitude": -81.264, "fire_name": "DEEP LAKE", "fire_number": "FL-BCP-12018", "area": 8011.0, "report_date": "3\/12\/12" }, "geometry": { "type": "Point", "coordinates": [ -81.264, 26.041 ] } }
,
{ "type": "Feature", "id": 11627, "properties": { "pull_date": "3\/16\/12", "latitude": 35.04, "longitude": -95.062, "fire_name": "RYANS PEAK", "fire_number": "OK-OKS-12-B20053", "area": 900.0, "report_date": "3\/9\/12" }, "geometry": { "type": "Point", "coordinates": [ -95.062, 35.04 ] } }
,
{ "type": "Feature", "id": 11628, "properties": { "pull_date": "3\/16\/12", "latitude": 36.341, "longitude": -94.906, "fire_name": "SOLDIER HOLLOW", "fire_number": "OK-NEU-12-30150", "area": 750.0, "report_date": "3\/9\/12" }, "geometry": { "type": "Point", "coordinates": [ -94.906, 36.341 ] } }
,
{ "type": "Feature", "id": 11629, "properties": { "pull_date": "3\/16\/12", "latitude": 36.258, "longitude": -94.865, "fire_name": "MARBLE FIELD PLANTAION", "fire_number": "OK-NEU-12-30179", "area": 500.0, "report_date": "3\/12\/12" }, "geometry": { "type": "Point", "coordinates": [ -94.865, 36.258 ] } }
,
{ "type": "Feature", "id": 11630, "properties": { "pull_date": "3\/16\/12", "latitude": 36.353, "longitude": -94.849, "fire_name": "CONDE", "fire_number": "OK-NEU-12-30158", "area": 475.0, "report_date": "3\/9\/12" }, "geometry": { "type": "Point", "coordinates": [ -94.849, 36.353 ] } }
,
{ "type": "Feature", "id": 11631, "properties": { "pull_date": "3\/16\/12", "latitude": 35.032, "longitude": -95.234, "fire_name": "SMOKESTACK", "fire_number": "OK-OKS-12-20059", "area": 410.0, "report_date": "3\/9\/12" }, "geometry": { "type": "Point", "coordinates": [ -95.234, 35.032 ] } }
,
{ "type": "Feature", "id": 11632, "properties": { "pull_date": "3\/16\/12", "latitude": 35.622, "longitude": -94.669, "fire_name": "WALKER", "fire_number": "OK-NEU-12-30176", "area": 350.0, "report_date": "3\/9\/12" }, "geometry": { "type": "Point", "coordinates": [ -94.669, 35.622 ] } }
,
{ "type": "Feature", "id": 11633, "properties": { "pull_date": "3\/16\/12", "latitude": 35.609, "longitude": -94.596, "fire_name": "SHALE PIT", "fire_number": "OK-NEU-12-30149", "area": 350.0, "report_date": "3\/9\/12" }, "geometry": { "type": "Point", "coordinates": [ -94.596, 35.609 ] } }
,
{ "type": "Feature", "id": 11634, "properties": { "pull_date": "3\/16\/12", "latitude": 35.722, "longitude": -95.018, "fire_name": "WEST SELLERS MT.", "fire_number": "OK-NEU-12-30180", "area": 250.0, "report_date": "3\/9\/12" }, "geometry": { "type": "Point", "coordinates": [ -95.018, 35.722 ] } }
,
{ "type": "Feature", "id": 11635, "properties": { "pull_date": "3\/16\/12", "latitude": 36.801, "longitude": -83.805, "fire_name": "COALPORT", "fire_number": "KY-KYS-12-3007", "area": 200.0, "report_date": "3\/13\/12" }, "geometry": { "type": "Point", "coordinates": [ -83.805, 36.801 ] } }
,
{ "type": "Feature", "id": 11636, "properties": { "pull_date": "3\/16\/12", "latitude": 36.788, "longitude": -84.049, "fire_name": "WHETSTONE", "fire_number": "KY-KYS-12-3006", "area": 200.0, "report_date": "3\/13\/12" }, "geometry": { "type": "Point", "coordinates": [ -84.049, 36.788 ] } }
,
{ "type": "Feature", "id": 11637, "properties": { "pull_date": "3\/16\/12", "latitude": 37.259, "longitude": -83.909, "fire_name": "TERRELS CREEK", "fire_number": "KY-KYS-12-3008", "area": 150.0, "report_date": "3\/12\/12" }, "geometry": { "type": "Point", "coordinates": [ -83.909, 37.259 ] } }
,
{ "type": "Feature", "id": 11638, "properties": { "pull_date": "3\/16\/12", "latitude": 36.688, "longitude": -84.048, "fire_name": "ROCK SPRINGS #2", "fire_number": "KY-KYS-12-3005", "area": 125.0, "report_date": "3\/13\/12" }, "geometry": { "type": "Point", "coordinates": [ -84.048, 36.688 ] } }
,
{ "type": "Feature", "id": 11639, "properties": { "pull_date": "3\/16\/12", "latitude": 35.745, "longitude": -94.599, "fire_name": "SOAP MT", "fire_number": "OK-NEU-12-30141", "area": 115.0, "report_date": "3\/9\/12" }, "geometry": { "type": "Point", "coordinates": [ -94.599, 35.745 ] } }
,
{ "type": "Feature", "id": 11640, "properties": { "pull_date": "3\/16\/12", "latitude": 37.153, "longitude": -82.058, "fire_name": "INDIAN GAP", "fire_number": "VA-VAS-12060045", "area": 120.0, "report_date": "3\/12\/12" }, "geometry": { "type": "Point", "coordinates": [ -82.058, 37.153 ] } }
,
{ "type": "Feature", "id": 11641, "properties": { "pull_date": "3\/16\/12", "latitude": 45.538, "longitude": -111.589, "fire_name": "BEAR TRAP", "fire_number": "MT-BDF-000005", "area": 104.0, "report_date": "3\/15\/12" }, "geometry": { "type": "Point", "coordinates": [ -111.589, 45.538 ] } }
,
{ "type": "Feature", "id": 11642, "properties": { "pull_date": "3\/16\/12", "latitude": 46.294, "longitude": -107.137, "fire_name": "HIGHWAY 10", "fire_number": "MT-SOS-000005", "area": 535.0, "report_date": "3\/14\/12" }, "geometry": { "type": "Point", "coordinates": [ -107.137, 46.294 ] } }
,
{ "type": "Feature", "id": 11643, "properties": { "pull_date": "3\/16\/12", "latitude": 39.284, "longitude": -96.834, "fire_name": "OLD 77", "fire_number": "KS-DDQ-129", "area": 1361.0, "report_date": "3\/15\/12" }, "geometry": { "type": "Point", "coordinates": [ -96.834, 39.284 ] } }
,
{ "type": "Feature", "id": 11644, "properties": { "pull_date": "3\/16\/12", "latitude": 42.683, "longitude": -97.891, "fire_name": "SIX PACK", "fire_number": "NE-WIA-120093", "area": 1100.0, "report_date": "3\/15\/12" }, "geometry": { "type": "Point", "coordinates": [ -97.891, 42.683 ] } }
,
{ "type": "Feature", "id": 11645, "properties": { "pull_date": "3\/16\/12", "latitude": 39.287, "longitude": -96.913, "fire_name": "MPRC", "fire_number": "KS-DDQ-131", "area": 1022.0, "report_date": "3\/15\/12" }, "geometry": { "type": "Point", "coordinates": [ -96.913, 39.287 ] } }
,
{ "type": "Feature", "id": 11646, "properties": { "pull_date": "3\/16\/12", "latitude": 39.187, "longitude": -96.834, "fire_name": "RANGE 29", "fire_number": "KS-DDQ-130", "area": 765.0, "report_date": "3\/15\/12" }, "geometry": { "type": "Point", "coordinates": [ -96.834, 39.187 ] } }
,
{ "type": "Feature", "id": 11647, "properties": { "pull_date": "3\/16\/12", "latitude": 45.6, "longitude": -100.478, "fire_name": "MARCH", "fire_number": "ND-SRA-120096", "area": 211.0, "report_date": "3\/15\/12" }, "geometry": { "type": "Point", "coordinates": [ -100.478, 45.6 ] } }
,
{ "type": "Feature", "id": 11648, "properties": { "pull_date": "3\/16\/12", "latitude": 31.787, "longitude": -111.6, "fire_name": "BABO", "fire_number": "AZ-PPA-000096", "area": 450.0, "report_date": "3\/15\/12" }, "geometry": { "type": "Point", "coordinates": [ -111.6, 31.787 ] } }
,
{ "type": "Feature", "id": 11649, "properties": { "pull_date": "3\/23\/12", "latitude": 41.799, "longitude": -100.102, "fire_name": "DUNNING", "fire_number": "NE-NES-120103", "area": 637.0, "report_date": "3\/16\/12" }, "geometry": { "type": "Point", "coordinates": [ -100.102, 41.799 ] } }
,
{ "type": "Feature", "id": 11650, "properties": { "pull_date": "3\/23\/12", "latitude": 45.6, "longitude": -100.478, "fire_name": "MARCH", "fire_number": "ND-SRA-120096", "area": 211.0, "report_date": "3\/19\/12" }, "geometry": { "type": "Point", "coordinates": [ -100.478, 45.6 ] } }
,
{ "type": "Feature", "id": 11651, "properties": { "pull_date": "3\/23\/12", "latitude": 47.947, "longitude": -95.397, "fire_name": "RED LAKE 43", "fire_number": "MN-RLA-0043", "area": 525.0, "report_date": "3\/19\/12" }, "geometry": { "type": "Point", "coordinates": [ -95.397, 47.947 ] } }
,
{ "type": "Feature", "id": 11652, "properties": { "pull_date": "3\/23\/12", "latitude": 46.804, "longitude": -93.475, "fire_name": "ST. PATRICK'S DAY FIRE", "fire_number": "MN-MNS-232-00712", "area": 825.0, "report_date": "3\/19\/12" }, "geometry": { "type": "Point", "coordinates": [ -93.475, 46.804 ] } }
,
{ "type": "Feature", "id": 11653, "properties": { "pull_date": "3\/23\/12", "latitude": 46.746, "longitude": -94.774, "fire_name": "NO NAME FIRE", "fire_number": "MN-MNS-142-004", "area": 400.0, "report_date": "3\/17\/12" }, "geometry": { "type": "Point", "coordinates": [ -94.774, 46.746 ] } }
,
{ "type": "Feature", "id": 11654, "properties": { "pull_date": "3\/23\/12", "latitude": 46.746, "longitude": -94.774, "fire_name": "MCKINLEY TWP FIRE #4", "fire_number": "MN-MNS-142-002", "area": 400.0, "report_date": "3\/17\/12" }, "geometry": { "type": "Point", "coordinates": [ -94.774, 46.746 ] } }
,
{ "type": "Feature", "id": 11655, "properties": { "pull_date": "3\/23\/12", "latitude": 44.319, "longitude": -93.784, "fire_name": "LECENTER FIRE", "fire_number": "MN-MNS-343-0-12", "area": 400.0, "report_date": "3\/16\/12" }, "geometry": { "type": "Point", "coordinates": [ -93.784, 44.319 ] } }
,
{ "type": "Feature", "id": 11656, "properties": { "pull_date": "3\/23\/12", "latitude": 37.736, "longitude": -91.138, "fire_name": "POSSUM TROT", "fire_number": "MO-MTF-000062", "area": 160.0, "report_date": "3\/18\/12" }, "geometry": { "type": "Point", "coordinates": [ -91.138, 37.736 ] } }
,
{ "type": "Feature", "id": 11657, "properties": { "pull_date": "3\/23\/12", "latitude": 30.002, "longitude": -94.913, "fire_name": "COPELAND", "fire_number": "OK-NEU-12-30202", "area": 400.0, "report_date": "3\/18\/12" }, "geometry": { "type": "Point", "coordinates": [ -94.913, 30.002 ] } }
,
{ "type": "Feature", "id": 11658, "properties": { "pull_date": "3\/23\/12", "latitude": 30.266, "longitude": -84.144, "fire_name": "NATURAL FIRE", "fire_number": "FL-FLS-04-2012-0157", "area": 390.0, "report_date": "3\/19\/12" }, "geometry": { "type": "Point", "coordinates": [ -84.144, 30.266 ] } }
,
{ "type": "Feature", "id": 11659, "properties": { "pull_date": "3\/23\/12", "latitude": 35.738, "longitude": -94.521, "fire_name": "RATTLESNAKE RIDGE", "fire_number": "OK-NEU-12-30204", "area": 300.0, "report_date": "3\/18\/12" }, "geometry": { "type": "Point", "coordinates": [ -94.521, 35.738 ] } }
,
{ "type": "Feature", "id": 11660, "properties": { "pull_date": "3\/23\/12", "latitude": 31.017, "longitude": -102.917, "fire_name": "HOOVER FIRE", "fire_number": "TX-TXS-012023", "area": 800.0, "report_date": "3\/19\/12" }, "geometry": { "type": "Point", "coordinates": [ -102.917, 31.017 ] } }
,
{ "type": "Feature", "id": 11661, "properties": { "pull_date": "3\/23\/12", "latitude": 30.75, "longitude": -104.267, "fire_name": "MCCOY FIRE", "fire_number": "TX-TXS-012022", "area": 450.0, "report_date": "3\/19\/12" }, "geometry": { "type": "Point", "coordinates": [ -104.267, 30.75 ] } }
,
{ "type": "Feature", "id": 11662, "properties": { "pull_date": "3\/23\/12", "latitude": 28.639, "longitude": -82.574, "fire_name": "3 BRIDGE FIRE", "fire_number": "FL-FLS-2012-11-0231", "area": 300.0, "report_date": "3\/18\/12" }, "geometry": { "type": "Point", "coordinates": [ -82.574, 28.639 ] } }
,
{ "type": "Feature", "id": 11663, "properties": { "pull_date": "3\/23\/12", "latitude": 37.224, "longitude": -82.762, "fire_name": "MILLSTONE", "fire_number": "KY-KYS-12-2002", "area": 250.0, "report_date": "3\/16\/12" }, "geometry": { "type": "Point", "coordinates": [ -82.762, 37.224 ] } }
,
{ "type": "Feature", "id": 11664, "properties": { "pull_date": "3\/23\/12", "latitude": 40.386, "longitude": -89.869, "fire_name": "SAND RIDGE", "fire_number": "IL-ILS-142", "area": 375.0, "report_date": "3\/20\/12" }, "geometry": { "type": "Point", "coordinates": [ -89.869, 40.386 ] } }
,
{ "type": "Feature", "id": 11665, "properties": { "pull_date": "3\/23\/12", "latitude": 34.999, "longitude": -88.052, "fire_name": "SHEPERD HOLLOW ", "fire_number": "AL-ALS-20120318005", "area": 660.0, "report_date": "3\/21\/12" }, "geometry": { "type": "Point", "coordinates": [ -88.052, 34.999 ] } }
,
{ "type": "Feature", "id": 11666, "properties": { "pull_date": "3\/23\/12", "latitude": 41.606, "longitude": -87.267, "fire_name": "RAILROAD", "fire_number": "IN-IDP-120001", "area": 225.0, "report_date": "3\/15\/12" }, "geometry": { "type": "Point", "coordinates": [ -87.267, 41.606 ] } }
,
{ "type": "Feature", "id": 11667, "properties": { "pull_date": "3\/23\/12", "latitude": 48.911, "longitude": -96.799, "fire_name": "WATER TOWER FIRE", "fire_number": "MN-MNS-1210160", "area": 1100.0, "report_date": "3\/22\/12" }, "geometry": { "type": "Point", "coordinates": [ -96.799, 48.911 ] } }
,
{ "type": "Feature", "id": 11668, "properties": { "pull_date": "3\/23\/12", "latitude": 33.289, "longitude": -109.978, "fire_name": "HOOKER", "fire_number": "AZ-SCA-018", "area": 1980.0, "report_date": "3\/18\/12" }, "geometry": { "type": "Point", "coordinates": [ -109.978, 33.289 ] } }
,
{ "type": "Feature", "id": 11669, "properties": { "pull_date": "3\/23\/12", "latitude": 31.453, "longitude": -110.451, "fire_name": "SHAMROCK", "fire_number": "AZ-CNF-000120", "area": 450.0, "report_date": "3\/18\/12" }, "geometry": { "type": "Point", "coordinates": [ -110.451, 31.453 ] } }
,
{ "type": "Feature", "id": 11670, "properties": { "pull_date": "3\/30\/12", "latitude": 39.436, "longitude": -105.217, "fire_name": "LOWER NORTH FORK FIRE", "fire_number": "CO-JEX-000176", "area": 3050.0, "report_date": "3\/27\/12" }, "geometry": { "type": "Point", "coordinates": [ -105.217, 39.436 ] } }
,
{ "type": "Feature", "id": 11671, "properties": { "pull_date": "3\/30\/12", "latitude": 29.961, "longitude": -85.358, "fire_name": "FIRE BREAK", "fire_number": "FL-FLS-2012-02-0236", "area": 1300.0, "report_date": "3\/26\/12" }, "geometry": { "type": "Point", "coordinates": [ -85.358, 29.961 ] } }
,
{ "type": "Feature", "id": 11672, "properties": { "pull_date": "3\/30\/12", "latitude": 37.593, "longitude": -91.159, "fire_name": "TRI COUNTY", "fire_number": "MO-MTF-000066", "area": 100.0, "report_date": "3\/26\/12" }, "geometry": { "type": "Point", "coordinates": [ -91.159, 37.593 ] } }
,
{ "type": "Feature", "id": 11673, "properties": { "pull_date": "3\/30\/12", "latitude": 43.646, "longitude": -103.531, "fire_name": "APPLE", "fire_number": "SD-BKF-120158", "area": 500.0, "report_date": "3\/28\/12" }, "geometry": { "type": "Point", "coordinates": [ -103.531, 43.646 ] } }
,
{ "type": "Feature", "id": 11674, "properties": { "pull_date": "3\/30\/12", "latitude": 42.461, "longitude": -100.555, "fire_name": "VALENTINE SOUTH", "fire_number": "NE-VAR-120151", "area": 690.0, "report_date": "3\/28\/12" }, "geometry": { "type": "Point", "coordinates": [ -100.555, 42.461 ] } }
,
{ "type": "Feature", "id": 11675, "properties": { "pull_date": "3\/30\/12", "latitude": 45.335, "longitude": -100.406, "fire_name": "KENNY", "fire_number": "SD-CRA-120128", "area": 421.0, "report_date": "3\/27\/12" }, "geometry": { "type": "Point", "coordinates": [ -100.406, 45.335 ] } }
,
{ "type": "Feature", "id": 11676, "properties": { "pull_date": "3\/30\/12", "latitude": 38.202, "longitude": -92.902, "fire_name": "CUP TREE", "fire_number": "MO-MOS-120018", "area": 300.0, "report_date": "3\/28\/12" }, "geometry": { "type": "Point", "coordinates": [ -92.902, 38.202 ] } }
,
{ "type": "Feature", "id": 11677, "properties": { "pull_date": "3\/30\/12", "latitude": 41.483, "longitude": -72.333, "fire_name": "DEVIL'S HOPYARD", "fire_number": "CT-CTS-00001", "area": 130.0, "report_date": "3\/28\/12" }, "geometry": { "type": "Point", "coordinates": [ -72.333, 41.483 ] } }
,
{ "type": "Feature", "id": 11678, "properties": { "pull_date": "3\/30\/12", "latitude": 43.626, "longitude": -101.393, "fire_name": "BAUMAN", "fire_number": "SD-PRA-120166", "area": 160.0, "report_date": "3\/29\/12" }, "geometry": { "type": "Point", "coordinates": [ -101.393, 43.626 ] } }
,
{ "type": "Feature", "id": 11679, "properties": { "pull_date": "3\/30\/12", "latitude": 39.299, "longitude": -97.268, "fire_name": "9TH AND FRONTIER", "fire_number": "KS-KSS-207", "area": 1600.0, "report_date": "3\/29\/12" }, "geometry": { "type": "Point", "coordinates": [ -97.268, 39.299 ] } }
,
{ "type": "Feature", "id": 11680, "properties": { "pull_date": "3\/30\/12", "latitude": 36.62, "longitude": -82.995, "fire_name": "OLD SCHOOL", "fire_number": "VA-VAS-120653", "area": 400.0, "report_date": "3\/29\/12" }, "geometry": { "type": "Point", "coordinates": [ -82.995, 36.62 ] } }
,
{ "type": "Feature", "id": 11681, "properties": { "pull_date": "3\/30\/12", "latitude": 36.433, "longitude": -82.023, "fire_name": "HURLEY", "fire_number": "TN-CNF-000007", "area": 112.0, "report_date": "3\/28\/12" }, "geometry": { "type": "Point", "coordinates": [ -82.023, 36.433 ] } }
,
{ "type": "Feature", "id": 11682, "properties": { "pull_date": "3\/30\/12", "latitude": 36.902, "longitude": -82.496, "fire_name": "JAYBIRD", "fire_number": "VA-VAF-201241", "area": 112.0, "report_date": "3\/23\/12" }, "geometry": { "type": "Point", "coordinates": [ -82.496, 36.902 ] } }
,
{ "type": "Feature", "id": 11683, "properties": { "pull_date": "4\/6\/12", "latitude": 39.436, "longitude": -105.217, "fire_name": "LOWER NORTH FORK FIRE", "fire_number": "CO-JEX-000176", "area": 3050.0, "report_date": "3\/27\/12" }, "geometry": { "type": "Point", "coordinates": [ -105.217, 39.436 ] } }
,
{ "type": "Feature", "id": 11684, "properties": { "pull_date": "4\/6\/12", "latitude": 43.646, "longitude": -103.531, "fire_name": "APPLE", "fire_number": "SD-BKF-120158", "area": 500.0, "report_date": "3\/28\/12" }, "geometry": { "type": "Point", "coordinates": [ -103.531, 43.646 ] } }
,
{ "type": "Feature", "id": 11685, "properties": { "pull_date": "4\/6\/12", "latitude": 36.62, "longitude": -82.995, "fire_name": "OLD SCHOOL", "fire_number": "VA-VAS-120653", "area": 400.0, "report_date": "3\/29\/12" }, "geometry": { "type": "Point", "coordinates": [ -82.995, 36.62 ] } }
,
{ "type": "Feature", "id": 11686, "properties": { "pull_date": "4\/6\/12", "latitude": 36.427, "longitude": -82.025, "fire_name": "HURLEY HOLLOW RD.", "fire_number": "TN-TNS-ETD0002", "area": 112.0, "report_date": "4\/2\/12" }, "geometry": { "type": "Point", "coordinates": [ -82.025, 36.427 ] } }
,
{ "type": "Feature", "id": 11687, "properties": { "pull_date": "4\/6\/12", "latitude": 38.83, "longitude": -81.742, "fire_name": "SALTVILLE", "fire_number": "VA-VAS-120657", "area": 100.0, "report_date": "3\/30\/12" }, "geometry": { "type": "Point", "coordinates": [ -81.742, 38.83 ] } }
,
{ "type": "Feature", "id": 11688, "properties": { "pull_date": "4\/6\/12", "latitude": 47.129, "longitude": -95.918, "fire_name": "SPRING CREEK", "fire_number": "MN-MNS-16100", "area": 1185.0, "report_date": "4\/2\/12" }, "geometry": { "type": "Point", "coordinates": [ -95.918, 47.129 ] } }
,
{ "type": "Feature", "id": 11689, "properties": { "pull_date": "4\/6\/12", "latitude": 37.433, "longitude": -91.278, "fire_name": "A HIGHWAY", "fire_number": "MO-MTF-000072", "area": 226.0, "report_date": "4\/3\/12" }, "geometry": { "type": "Point", "coordinates": [ -91.278, 37.433 ] } }
,
{ "type": "Feature", "id": 11690, "properties": { "pull_date": "4\/6\/12", "latitude": 45.893, "longitude": -93.952, "fire_name": "WAKEUP FIRE", "fire_number": "MN-MNS-006", "area": 300.0, "report_date": "4\/2\/12" }, "geometry": { "type": "Point", "coordinates": [ -93.952, 45.893 ] } }
,
{ "type": "Feature", "id": 11691, "properties": { "pull_date": "4\/6\/12", "latitude": 33.526, "longitude": -105.506, "fire_name": "ORIO", "fire_number": "NM-ROD-000008", "area": 829.0, "report_date": "4\/3\/12" }, "geometry": { "type": "Point", "coordinates": [ -105.506, 33.526 ] } }
,
{ "type": "Feature", "id": 11692, "properties": { "pull_date": "4\/6\/12", "latitude": 41.338, "longitude": -78.126, "fire_name": "DRIFTWOOD", "fire_number": "PA-PAS-13121000", "area": 300.0, "report_date": "4\/4\/12" }, "geometry": { "type": "Point", "coordinates": [ -78.126, 41.338 ] } }
,
{ "type": "Feature", "id": 11693, "properties": { "pull_date": "4\/6\/12", "latitude": 43.626, "longitude": -101.393, "fire_name": "BAUMAN", "fire_number": "SD-PRA-120166", "area": 160.0, "report_date": "3\/29\/12" }, "geometry": { "type": "Point", "coordinates": [ -101.393, 43.626 ] } }
,
{ "type": "Feature", "id": 11694, "properties": { "pull_date": "4\/6\/12", "latitude": 26.159, "longitude": -81.478, "fire_name": "ROUND TWO", "fire_number": "FL-FPR-2012001", "area": 878.0, "report_date": "4\/5\/12" }, "geometry": { "type": "Point", "coordinates": [ -81.478, 26.159 ] } }
,
{ "type": "Feature", "id": 11695, "properties": { "pull_date": "4\/6\/12", "latitude": 36.142, "longitude": -92.214, "fire_name": "SCENIC ROAD", "fire_number": "AR-ARS-128D7", "area": 126.0, "report_date": "4\/4\/12" }, "geometry": { "type": "Point", "coordinates": [ -92.214, 36.142 ] } }
,
{ "type": "Feature", "id": 11696, "properties": { "pull_date": "4\/10\/12", "latitude": 46.594, "longitude": -94.924, "fire_name": "JEEP FIRE", "fire_number": "MN-MNS-161-004", "area": 1600.0, "report_date": "4\/9\/12" }, "geometry": { "type": "Point", "coordinates": [ -94.924, 46.594 ] } }
,
{ "type": "Feature", "id": 11697, "properties": { "pull_date": "4\/10\/12", "latitude": 39.837, "longitude": -74.626, "fire_name": "SOUTH PARK FIRE", "fire_number": "NJ-NJS-B040806", "area": 1000.0, "report_date": "4\/10\/12" }, "geometry": { "type": "Point", "coordinates": [ -74.626, 39.837 ] } }
,
{ "type": "Feature", "id": 11698, "properties": { "pull_date": "4\/10\/12", "latitude": 47.048, "longitude": -95.952, "fire_name": "DONELY TILMAN", "fire_number": "MN-DLR-00010", "area": 818.0, "report_date": "4\/9\/12" }, "geometry": { "type": "Point", "coordinates": [ -95.952, 47.048 ] } }
,
{ "type": "Feature", "id": 11699, "properties": { "pull_date": "4\/10\/12", "latitude": 48.626, "longitude": -94.563, "fire_name": "GOOD FRIDAY 72 FIRE", "fire_number": "MN-MNS-131-003", "area": 490.0, "report_date": "4\/7\/12" }, "geometry": { "type": "Point", "coordinates": [ -94.563, 48.626 ] } }
,
{ "type": "Feature", "id": 11700, "properties": { "pull_date": "4\/10\/12", "latitude": 39.642, "longitude": -74.925, "fire_name": "WINSLOW", "fire_number": "NJ-NJS-C040504", "area": 400.0, "report_date": "4\/7\/12" }, "geometry": { "type": "Point", "coordinates": [ -74.925, 39.642 ] } }
,
{ "type": "Feature", "id": 11701, "properties": { "pull_date": "4\/10\/12", "latitude": 41.16, "longitude": -75.869, "fire_name": "GLENN SUMMIT", "fire_number": "PA-PAS-11121017", "area": 100.0, "report_date": "4\/7\/12" }, "geometry": { "type": "Point", "coordinates": [ -75.869, 41.16 ] } }
,
{ "type": "Feature", "id": 11702, "properties": { "pull_date": "4\/10\/12", "latitude": 30.549, "longitude": -82.465, "fire_name": "COUNTY LINE", "fire_number": "FL-FNF-012017", "area": 14004.0, "report_date": "4\/9\/12" }, "geometry": { "type": "Point", "coordinates": [ -82.465, 30.549 ] } }
,
{ "type": "Feature", "id": 11703, "properties": { "pull_date": "4\/10\/12", "latitude": 37.758, "longitude": -80.213, "fire_name": "ALLEGHANY TUNNELS FIRES", "fire_number": "VA-VAF-201243", "area": 2510.0, "report_date": "4\/9\/12" }, "geometry": { "type": "Point", "coordinates": [ -80.213, 37.758 ] } }
,
{ "type": "Feature", "id": 11704, "properties": { "pull_date": "4\/10\/12", "latitude": 37.63, "longitude": -80.063, "fire_name": "BARBOURS CREEK.", "fire_number": "VA-VAF-000053", "area": 800.0, "report_date": "4\/8\/12" }, "geometry": { "type": "Point", "coordinates": [ -80.063, 37.63 ] } }
,
{ "type": "Feature", "id": 11705, "properties": { "pull_date": "4\/10\/12", "latitude": 26.159, "longitude": -81.478, "fire_name": "ROUND TWO", "fire_number": "FL-FPR-2012001", "area": 735.0, "report_date": "4\/8\/12" }, "geometry": { "type": "Point", "coordinates": [ -81.478, 26.159 ] } }
,
{ "type": "Feature", "id": 11706, "properties": { "pull_date": "4\/10\/12", "latitude": 38.509, "longitude": -78.652, "fire_name": "SHIPWRECK", "fire_number": "VA-VAS-1203032", "area": 620.0, "report_date": "4\/10\/12" }, "geometry": { "type": "Point", "coordinates": [ -78.652, 38.509 ] } }
,
{ "type": "Feature", "id": 11707, "properties": { "pull_date": "4\/10\/12", "latitude": 37.269, "longitude": -76.403, "fire_name": "GUINEA", "fire_number": "VA-VAS-12020023", "area": 100.0, "report_date": "4\/9\/12" }, "geometry": { "type": "Point", "coordinates": [ -76.403, 37.269 ] } }
,
{ "type": "Feature", "id": 11708, "properties": { "pull_date": "4\/11\/12", "latitude": 46.881, "longitude": -103.376, "fire_name": "EASTER FIRE", "fire_number": "ND-DPF-120703", "area": 326.0, "report_date": "4\/10\/12" }, "geometry": { "type": "Point", "coordinates": [ -103.376, 46.881 ] } }
,
{ "type": "Feature", "id": 11709, "properties": { "pull_date": "4\/11\/12", "latitude": 40.882, "longitude": -72.838, "fire_name": "CRESCENT BOW FIRE", "fire_number": "NY-NYS-20120075", "area": 915.0, "report_date": "4\/10\/12" }, "geometry": { "type": "Point", "coordinates": [ -72.838, 40.882 ] } }
,
{ "type": "Feature", "id": 11710, "properties": { "pull_date": "4\/11\/12", "latitude": 40.189, "longitude": -75.746, "fire_name": "HOPEWELL FIRE", "fire_number": "PA-PAS-17121044", "area": 400.0, "report_date": "4\/10\/12" }, "geometry": { "type": "Point", "coordinates": [ -75.746, 40.189 ] } }
,
{ "type": "Feature", "id": 11711, "properties": { "pull_date": "4\/11\/12", "latitude": 46.594, "longitude": -94.924, "fire_name": "JEEP FIRE", "fire_number": "MN-MNS-161-004", "area": 1600.0, "report_date": "4\/10\/12" }, "geometry": { "type": "Point", "coordinates": [ -94.924, 46.594 ] } }
,
{ "type": "Feature", "id": 11712, "properties": { "pull_date": "4\/11\/12", "latitude": 39.837, "longitude": -74.626, "fire_name": "SOUTH PARK FIRE", "fire_number": "NJ-NJS-B040806", "area": 1000.0, "report_date": "4\/10\/12" }, "geometry": { "type": "Point", "coordinates": [ -74.626, 39.837 ] } }
,
{ "type": "Feature", "id": 11713, "properties": { "pull_date": "4\/11\/12", "latitude": 41.277, "longitude": -74.017, "fire_name": "ANTHONY REC FIRE", "fire_number": "NY-NYS-20120078", "area": 500.0, "report_date": "4\/10\/12" }, "geometry": { "type": "Point", "coordinates": [ -74.017, 41.277 ] } }
,
{ "type": "Feature", "id": 11714, "properties": { "pull_date": "4\/11\/12", "latitude": 37.33, "longitude": -79.987, "fire_name": "EASTER COMPLEX", "fire_number": "VA-VAF-201257", "area": 11460.0, "report_date": "4\/10\/12" }, "geometry": { "type": "Point", "coordinates": [ -79.987, 37.33 ] } }
,
{ "type": "Feature", "id": 11715, "properties": { "pull_date": "4\/11\/12", "latitude": 30.549, "longitude": -82.465, "fire_name": "COUNTY LINE", "fire_number": "FL-FNF-012017", "area": 20425.0, "report_date": "4\/10\/12" }, "geometry": { "type": "Point", "coordinates": [ -82.465, 30.549 ] } }
,
{ "type": "Feature", "id": 11716, "properties": { "pull_date": "4\/11\/12", "latitude": 26.159, "longitude": -81.478, "fire_name": "ROUND TWO", "fire_number": "FL-FPR-2012001", "area": 735.0, "report_date": "4\/8\/12" }, "geometry": { "type": "Point", "coordinates": [ -81.478, 26.159 ] } }
,
{ "type": "Feature", "id": 11717, "properties": { "pull_date": "4\/11\/12", "latitude": 37.03, "longitude": -83.471, "fire_name": "BOWENS CREEK", "fire_number": "KY-DBF-120036", "area": 180.0, "report_date": "4\/10\/12" }, "geometry": { "type": "Point", "coordinates": [ -83.471, 37.03 ] } }
,
{ "type": "Feature", "id": 11718, "properties": { "pull_date": "4\/12\/12", "latitude": 37.74, "longitude": -79.336, "fire_name": "EASTER COMPLEX", "fire_number": "VA-VAF-201257", "area": 15351.0, "report_date": "4\/11\/12" }, "geometry": { "type": "Point", "coordinates": [ -79.336, 37.74 ] } }
,
{ "type": "Feature", "id": 11719, "properties": { "pull_date": "4\/12\/12", "latitude": 30.549, "longitude": -82.465, "fire_name": "COUNTY LINE", "fire_number": "FL-FNF-012017", "area": 30254.0, "report_date": "4\/11\/12" }, "geometry": { "type": "Point", "coordinates": [ -82.465, 30.549 ] } }
,
{ "type": "Feature", "id": 11720, "properties": { "pull_date": "4\/12\/12", "latitude": 26.159, "longitude": -81.478, "fire_name": "ROUND TWO", "fire_number": "FL-FPR-2012001", "area": 735.0, "report_date": "4\/8\/12" }, "geometry": { "type": "Point", "coordinates": [ -81.478, 26.159 ] } }
,
{ "type": "Feature", "id": 11721, "properties": { "pull_date": "4\/12\/12", "latitude": 37.03, "longitude": -83.471, "fire_name": "BOWENS CREEK", "fire_number": "KY-DBF-120036", "area": 180.0, "report_date": "4\/10\/12" }, "geometry": { "type": "Point", "coordinates": [ -83.471, 37.03 ] } }
,
{ "type": "Feature", "id": 11722, "properties": { "pull_date": "4\/12\/12", "latitude": 40.189, "longitude": -75.746, "fire_name": "HOPEWELL FIRE", "fire_number": "PA-PAS-17121044", "area": 540.0, "report_date": "4\/11\/12" }, "geometry": { "type": "Point", "coordinates": [ -75.746, 40.189 ] } }
,
{ "type": "Feature", "id": 11723, "properties": { "pull_date": "4\/12\/12", "latitude": 40.882, "longitude": -72.838, "fire_name": "CRESCENT BOW FIRE", "fire_number": "NY-NYS-20120075", "area": 1156.0, "report_date": "4\/11\/12" }, "geometry": { "type": "Point", "coordinates": [ -72.838, 40.882 ] } }
,
{ "type": "Feature", "id": 11724, "properties": { "pull_date": "4\/12\/12", "latitude": 40.307, "longitude": -107.075, "fire_name": "MIDDLE CREEK", "fire_number": "CO-RTX-086", "area": 480.0, "report_date": "4\/11\/12" }, "geometry": { "type": "Point", "coordinates": [ -107.075, 40.307 ] } }
,
{ "type": "Feature", "id": 11725, "properties": { "pull_date": "4\/12\/12", "latitude": 41.572, "longitude": -115.9, "fire_name": "NORTH", "fire_number": "NV-NNS-10464", "area": 300.0, "report_date": "4\/11\/12" }, "geometry": { "type": "Point", "coordinates": [ -115.9, 41.572 ] } }
,
{ "type": "Feature", "id": 11726, "properties": { "pull_date": "4\/12\/12", "latitude": 36.647, "longitude": -80.242, "fire_name": "STUART", "fire_number": "VA-VAS-12050034", "area": 125.0, "report_date": "4\/11\/12" }, "geometry": { "type": "Point", "coordinates": [ -80.242, 36.647 ] } }
,
{ "type": "Feature", "id": 11727, "properties": { "pull_date": "4\/13\/12", "latitude": 37.74, "longitude": -79.336, "fire_name": "EASTER COMPLEX", "fire_number": "VA-VAF-201257", "area": 17711.0, "report_date": "4\/12\/12" }, "geometry": { "type": "Point", "coordinates": [ -79.336, 37.74 ] } }
,
{ "type": "Feature", "id": 11728, "properties": { "pull_date": "4\/13\/12", "latitude": 30.549, "longitude": -82.465, "fire_name": "COUNTY LINE", "fire_number": "FL-FNF-012017", "area": 34936.0, "report_date": "4\/12\/12" }, "geometry": { "type": "Point", "coordinates": [ -82.465, 30.549 ] } }
,
{ "type": "Feature", "id": 11729, "properties": { "pull_date": "4\/13\/12", "latitude": 37.03, "longitude": -83.471, "fire_name": "BOWENS CREEK", "fire_number": "KY-DBF-120036", "area": 171.0, "report_date": "4\/12\/12" }, "geometry": { "type": "Point", "coordinates": [ -83.471, 37.03 ] } }
,
{ "type": "Feature", "id": 11730, "properties": { "pull_date": "4\/13\/12", "latitude": 40.216, "longitude": -75.762, "fire_name": "HOPEWELL FIRE", "fire_number": "PA-PAS-17121044", "area": 619.0, "report_date": "4\/12\/12" }, "geometry": { "type": "Point", "coordinates": [ -75.762, 40.216 ] } }
,
{ "type": "Feature", "id": 11731, "properties": { "pull_date": "4\/13\/12", "latitude": 40.307, "longitude": -107.075, "fire_name": "MIDDLE CREEK", "fire_number": "CO-RTX-086", "area": 480.0, "report_date": "4\/11\/12" }, "geometry": { "type": "Point", "coordinates": [ -107.075, 40.307 ] } }
,
{ "type": "Feature", "id": 11732, "properties": { "pull_date": "4\/13\/12", "latitude": 41.572, "longitude": -115.9, "fire_name": "NORTH", "fire_number": "NV-NNS-10464", "area": 217.0, "report_date": "4\/12\/12" }, "geometry": { "type": "Point", "coordinates": [ -115.9, 41.572 ] } }
,
{ "type": "Feature", "id": 11733, "properties": { "pull_date": "4\/13\/12", "latitude": 32.603, "longitude": -108.216, "fire_name": "MCCAULEY", "fire_number": "NM-N3S-000086", "area": 1000.0, "report_date": "4\/12\/12" }, "geometry": { "type": "Point", "coordinates": [ -108.216, 32.603 ] } }
,
{ "type": "Feature", "id": 11734, "properties": { "pull_date": "4\/13\/12", "latitude": 41.16, "longitude": -75.869, "fire_name": "GLENN SUMMIT", "fire_number": "PA-PAS-11121017", "area": 100.0, "report_date": "4\/12\/12" }, "geometry": { "type": "Point", "coordinates": [ -75.869, 41.16 ] } }
,
{ "type": "Feature", "id": 11735, "properties": { "pull_date": "4\/14\/12", "latitude": 40.216, "longitude": -75.762, "fire_name": "HOPEWELL FIRE", "fire_number": "PA-PAS-17121044", "area": 619.0, "report_date": "4\/12\/12" }, "geometry": { "type": "Point", "coordinates": [ -75.762, 40.216 ] } }
,
{ "type": "Feature", "id": 11736, "properties": { "pull_date": "4\/14\/12", "latitude": 37.74, "longitude": -79.336, "fire_name": "EASTER COMPLEX", "fire_number": "VA-VAF-201257", "area": 18307.0, "report_date": "4\/13\/12" }, "geometry": { "type": "Point", "coordinates": [ -79.336, 37.74 ] } }
,
{ "type": "Feature", "id": 11737, "properties": { "pull_date": "4\/14\/12", "latitude": 38.509, "longitude": -78.652, "fire_name": "SHIPWRECK", "fire_number": "VA-VAS-1203032", "area": 3400.0, "report_date": "4\/13\/12" }, "geometry": { "type": "Point", "coordinates": [ -78.652, 38.509 ] } }
,
{ "type": "Feature", "id": 11738, "properties": { "pull_date": "4\/14\/12", "latitude": 30.549, "longitude": -82.465, "fire_name": "COUNTY LINE", "fire_number": "FL-FNF-012017", "area": 34936.0, "report_date": "4\/13\/12" }, "geometry": { "type": "Point", "coordinates": [ -82.465, 30.549 ] } }
,
{ "type": "Feature", "id": 11739, "properties": { "pull_date": "4\/14\/12", "latitude": 37.03, "longitude": -83.471, "fire_name": "BOWENS CREEK", "fire_number": "KY-DBF-120036", "area": 171.0, "report_date": "4\/12\/12" }, "geometry": { "type": "Point", "coordinates": [ -83.471, 37.03 ] } }
,
{ "type": "Feature", "id": 11740, "properties": { "pull_date": "4\/14\/12", "latitude": 40.307, "longitude": -107.075, "fire_name": "MIDDLE CREEK", "fire_number": "CO-RTX-086", "area": 480.0, "report_date": "4\/11\/12" }, "geometry": { "type": "Point", "coordinates": [ -107.075, 40.307 ] } }
,
{ "type": "Feature", "id": 11741, "properties": { "pull_date": "4\/14\/12", "latitude": 33.131, "longitude": -108.133, "fire_name": "JORDAN", "fire_number": "NM-GNF-0087", "area": 300.0, "report_date": "4\/13\/12" }, "geometry": { "type": "Point", "coordinates": [ -108.133, 33.131 ] } }
,
{ "type": "Feature", "id": 11742, "properties": { "pull_date": "4\/14\/12", "latitude": 48.979, "longitude": -96.94, "fire_name": "CLOW BORDER FIRE", "fire_number": "MN-MNS-121-060", "area": 1000.0, "report_date": "4\/13\/12" }, "geometry": { "type": "Point", "coordinates": [ -96.94, 48.979 ] } }
,
{ "type": "Feature", "id": 11743, "properties": { "pull_date": "4\/14\/12", "latitude": 48.869, "longitude": -96.504, "fire_name": "PEATLAND FIRE", "fire_number": "MN-MNS-121-059", "area": 720.0, "report_date": "4\/13\/12" }, "geometry": { "type": "Point", "coordinates": [ -96.504, 48.869 ] } }
,
{ "type": "Feature", "id": 11744, "properties": { "pull_date": "4\/14\/12", "latitude": 46.922, "longitude": -112.671, "fire_name": "DALTON", "fire_number": "MT-SWS-000801", "area": 440.0, "report_date": "4\/12\/12" }, "geometry": { "type": "Point", "coordinates": [ -112.671, 46.922 ] } }
,
{ "type": "Feature", "id": 11745, "properties": { "pull_date": "4\/14\/12", "latitude": 47.162, "longitude": -103.423, "fire_name": "TREE TOP", "fire_number": "ND-DPF-120704", "area": 400.0, "report_date": "4\/13\/12" }, "geometry": { "type": "Point", "coordinates": [ -103.423, 47.162 ] } }
,
{ "type": "Feature", "id": 11746, "properties": { "pull_date": "4\/15\/12", "latitude": 37.74, "longitude": -79.336, "fire_name": "EASTER COMPLEX", "fire_number": "VA-VAF-201257", "area": 21501.0, "report_date": "4\/14\/12" }, "geometry": { "type": "Point", "coordinates": [ -79.336, 37.74 ] } }
,
{ "type": "Feature", "id": 11747, "properties": { "pull_date": "4\/15\/12", "latitude": 30.549, "longitude": -82.465, "fire_name": "COUNTY LINE", "fire_number": "FL-FNF-012017", "area": 34936.0, "report_date": "4\/14\/12" }, "geometry": { "type": "Point", "coordinates": [ -82.465, 30.549 ] } }
,
{ "type": "Feature", "id": 11748, "properties": { "pull_date": "4\/15\/12", "latitude": 37.03, "longitude": -83.471, "fire_name": "BOWENS CREEK", "fire_number": "KY-DBF-120036", "area": 171.0, "report_date": "4\/12\/12" }, "geometry": { "type": "Point", "coordinates": [ -83.471, 37.03 ] } }
,
{ "type": "Feature", "id": 11749, "properties": { "pull_date": "4\/15\/12", "latitude": 38.509, "longitude": -78.652, "fire_name": "SHIPWRECK", "fire_number": "VA-VAS-1203032", "area": 4000.0, "report_date": "4\/14\/12" }, "geometry": { "type": "Point", "coordinates": [ -78.652, 38.509 ] } }
,
{ "type": "Feature", "id": 11750, "properties": { "pull_date": "4\/15\/12", "latitude": 33.131, "longitude": -108.133, "fire_name": "JORDAN", "fire_number": "NM-GNF-0087", "area": 409.0, "report_date": "4\/14\/12" }, "geometry": { "type": "Point", "coordinates": [ -108.133, 33.131 ] } }
,
{ "type": "Feature", "id": 11751, "properties": { "pull_date": "4\/16\/12", "latitude": 37.74, "longitude": -79.336, "fire_name": "EASTER COMPLEX", "fire_number": "VA-VAF-201257", "area": 29929.0, "report_date": "4\/15\/12" }, "geometry": { "type": "Point", "coordinates": [ -79.336, 37.74 ] } }
,
{ "type": "Feature", "id": 11752, "properties": { "pull_date": "4\/16\/12", "latitude": 30.549, "longitude": -82.465, "fire_name": "COUNTY LINE", "fire_number": "FL-FNF-012017", "area": 34936.0, "report_date": "4\/15\/12" }, "geometry": { "type": "Point", "coordinates": [ -82.465, 30.549 ] } }
,
{ "type": "Feature", "id": 11753, "properties": { "pull_date": "4\/16\/12", "latitude": 33.131, "longitude": -108.133, "fire_name": "JORDAN", "fire_number": "NM-GNF-0087", "area": 407.0, "report_date": "4\/15\/12" }, "geometry": { "type": "Point", "coordinates": [ -108.133, 33.131 ] } }
,
{ "type": "Feature", "id": 11754, "properties": { "pull_date": "4\/16\/12", "latitude": 31.133, "longitude": -89.15, "fire_name": "COWPEN TRAIL", "fire_number": "MS-MNF-01202002", "area": 782.0, "report_date": "4\/15\/12" }, "geometry": { "type": "Point", "coordinates": [ -89.15, 31.133 ] } }
,
{ "type": "Feature", "id": 11755, "properties": { "pull_date": "4\/16\/12", "latitude": 34.401, "longitude": -77.737, "fire_name": "GODFREY CREEK", "fire_number": "NC-NCS-1271015", "area": 450.0, "report_date": "4\/14\/12" }, "geometry": { "type": "Point", "coordinates": [ -77.737, 34.401 ] } }
,
{ "type": "Feature", "id": 11756, "properties": { "pull_date": "4\/16\/12", "latitude": 36.683, "longitude": -84.623, "fire_name": "HICKORY KNOB", "fire_number": "KY-DBF-120037", "area": 110.0, "report_date": "4\/15\/12" }, "geometry": { "type": "Point", "coordinates": [ -84.623, 36.683 ] } }
,
{ "type": "Feature", "id": 11757, "properties": { "pull_date": "4\/16\/12", "latitude": 26.096, "longitude": -81.63, "fire_name": "ARGYLE", "fire_number": "FL-FLS-2012-17-0151", "area": 440.0, "report_date": "4\/15\/12" }, "geometry": { "type": "Point", "coordinates": [ -81.63, 26.096 ] } }
,
{ "type": "Feature", "id": 11758, "properties": { "pull_date": "4\/17\/12", "latitude": 30.549, "longitude": -82.465, "fire_name": "COUNTY LINE", "fire_number": "FL-FNF-012017", "area": 34936.0, "report_date": "4\/16\/12" }, "geometry": { "type": "Point", "coordinates": [ -82.465, 30.549 ] } }
,
{ "type": "Feature", "id": 11759, "properties": { "pull_date": "4\/17\/12", "latitude": 36.683, "longitude": -84.623, "fire_name": "HICKORY KNOB", "fire_number": "KY-DBF-120037", "area": 110.0, "report_date": "4\/15\/12" }, "geometry": { "type": "Point", "coordinates": [ -84.623, 36.683 ] } }
,
{ "type": "Feature", "id": 11760, "properties": { "pull_date": "4\/17\/12", "latitude": 31.133, "longitude": -89.15, "fire_name": "COWPEN TRAIL", "fire_number": "MS-MNF-01202002", "area": 782.0, "report_date": "4\/15\/12" }, "geometry": { "type": "Point", "coordinates": [ -89.15, 31.133 ] } }
,
{ "type": "Feature", "id": 11761, "properties": { "pull_date": "4\/17\/12", "latitude": 37.74, "longitude": -79.336, "fire_name": "EASTER COMPLEX", "fire_number": "VA-VAF-201257", "area": 35092.0, "report_date": "4\/16\/12" }, "geometry": { "type": "Point", "coordinates": [ -79.336, 37.74 ] } }
,
{ "type": "Feature", "id": 11762, "properties": { "pull_date": "4\/17\/12", "latitude": 34.401, "longitude": -77.737, "fire_name": "GODFREY CREEK", "fire_number": "NC-NCS-1271015", "area": 450.0, "report_date": "4\/15\/12" }, "geometry": { "type": "Point", "coordinates": [ -77.737, 34.401 ] } }
,
{ "type": "Feature", "id": 11763, "properties": { "pull_date": "4\/17\/12", "latitude": 33.131, "longitude": -108.133, "fire_name": "JORDAN", "fire_number": "NM-GNF-0087", "area": 407.0, "report_date": "4\/15\/12" }, "geometry": { "type": "Point", "coordinates": [ -108.133, 33.131 ] } }
,
{ "type": "Feature", "id": 11764, "properties": { "pull_date": "4\/18\/12", "latitude": 33.131, "longitude": -108.133, "fire_name": "JORDAN", "fire_number": "NM-GNF-0087", "area": 407.0, "report_date": "4\/15\/12" }, "geometry": { "type": "Point", "coordinates": [ -108.133, 33.131 ] } }
,
{ "type": "Feature", "id": 11765, "properties": { "pull_date": "4\/18\/12", "latitude": 37.74, "longitude": -79.336, "fire_name": "EASTER COMPLEX", "fire_number": "VA-VAF-201257", "area": 35821.0, "report_date": "4\/17\/12" }, "geometry": { "type": "Point", "coordinates": [ -79.336, 37.74 ] } }
,
{ "type": "Feature", "id": 11766, "properties": { "pull_date": "4\/18\/12", "latitude": 30.549, "longitude": -82.465, "fire_name": "COUNTY LINE", "fire_number": "FL-FNF-012017", "area": 34936.0, "report_date": "4\/17\/12" }, "geometry": { "type": "Point", "coordinates": [ -82.465, 30.549 ] } }
,
{ "type": "Feature", "id": 11767, "properties": { "pull_date": "4\/18\/12", "latitude": 31.133, "longitude": -89.15, "fire_name": "COWPEN TRAIL", "fire_number": "MS-MNF-01202002", "area": 782.0, "report_date": "4\/17\/12" }, "geometry": { "type": "Point", "coordinates": [ -89.15, 31.133 ] } }
,
{ "type": "Feature", "id": 11768, "properties": { "pull_date": "4\/18\/12", "latitude": 36.683, "longitude": -84.623, "fire_name": "HICKORY KNOB", "fire_number": "KY-DBF-120037", "area": 110.0, "report_date": "4\/15\/12" }, "geometry": { "type": "Point", "coordinates": [ -84.623, 36.683 ] } }
,
{ "type": "Feature", "id": 11769, "properties": { "pull_date": "4\/19\/12", "latitude": 30.549, "longitude": -82.465, "fire_name": "COUNTY LINE", "fire_number": "FL-FNF-012017", "area": 34936.0, "report_date": "4\/18\/12" }, "geometry": { "type": "Point", "coordinates": [ -82.465, 30.549 ] } }
,
{ "type": "Feature", "id": 11770, "properties": { "pull_date": "4\/19\/12", "latitude": 37.74, "longitude": -79.336, "fire_name": "EASTER COMPLEX", "fire_number": "VA-VAF-201257", "area": 35821.0, "report_date": "4\/18\/12" }, "geometry": { "type": "Point", "coordinates": [ -79.336, 37.74 ] } }
,
{ "type": "Feature", "id": 11771, "properties": { "pull_date": "4\/19\/12", "latitude": 36.683, "longitude": -84.623, "fire_name": "HICKORY KNOB", "fire_number": "KY-DBF-120037", "area": 171.0, "report_date": "4\/18\/12" }, "geometry": { "type": "Point", "coordinates": [ -84.623, 36.683 ] } }
,
{ "type": "Feature", "id": 11772, "properties": { "pull_date": "4\/20\/12", "latitude": 30.549, "longitude": -82.465, "fire_name": "COUNTY LINE", "fire_number": "FL-FNF-012017", "area": 34936.0, "report_date": "4\/19\/12" }, "geometry": { "type": "Point", "coordinates": [ -82.465, 30.549 ] } }
,
{ "type": "Feature", "id": 11773, "properties": { "pull_date": "4\/23\/12", "latitude": 30.549, "longitude": -82.465, "fire_name": "COUNTY LINE", "fire_number": "FL-FNF-012017", "area": 34936.0, "report_date": "4\/19\/12" }, "geometry": { "type": "Point", "coordinates": [ -82.465, 30.549 ] } }
,
{ "type": "Feature", "id": 11774, "properties": { "pull_date": "4\/27\/12", "latitude": 30.549, "longitude": -82.465, "fire_name": "COUNTY LINE", "fire_number": "FL-FNF-012017", "area": 34936.0, "report_date": "4\/19\/12" }, "geometry": { "type": "Point", "coordinates": [ -82.465, 30.549 ] } }
,
{ "type": "Feature", "id": 11775, "properties": { "pull_date": "4\/27\/12", "latitude": 48.739, "longitude": -96.416, "fire_name": "KLONDIKE CABIN", "fire_number": "MN-MNS-1210072", "area": 1000.0, "report_date": "4\/23\/12" }, "geometry": { "type": "Point", "coordinates": [ -96.416, 48.739 ] } }
,
{ "type": "Feature", "id": 11776, "properties": { "pull_date": "4\/27\/12", "latitude": 42.221, "longitude": -117.861, "fire_name": "BLUE MOUNTAIN", "fire_number": "OR-VAD-011", "area": 4000.0, "report_date": "4\/25\/12" }, "geometry": { "type": "Point", "coordinates": [ -117.861, 42.221 ] } }
,
{ "type": "Feature", "id": 11777, "properties": { "pull_date": "4\/27\/12", "latitude": 32.656, "longitude": -105.326, "fire_name": "BAR CLAY", "fire_number": "NM-N5S-000293", "area": 301.0, "report_date": "4\/25\/12" }, "geometry": { "type": "Point", "coordinates": [ -105.326, 32.656 ] } }
,
{ "type": "Feature", "id": 11778, "properties": { "pull_date": "4\/27\/12", "latitude": 43.286, "longitude": -102.985, "fire_name": "WICK", "fire_number": "SD-PRA-120282", "area": 7665.0, "report_date": "4\/25\/12" }, "geometry": { "type": "Point", "coordinates": [ -102.985, 43.286 ] } }
,
{ "type": "Feature", "id": 11779, "properties": { "pull_date": "4\/27\/12", "latitude": 43.332, "longitude": -103.064, "fire_name": "HAY CANYON", "fire_number": "SD-SDS-120279", "area": 7000.0, "report_date": "4\/25\/12" }, "geometry": { "type": "Point", "coordinates": [ -103.064, 43.332 ] } }
,
{ "type": "Feature", "id": 11780, "properties": { "pull_date": "4\/27\/12", "latitude": 44.566, "longitude": -84.103, "fire_name": "LITTLE MACK LAKE", "fire_number": "MI-HMF-120089", "area": 400.0, "report_date": "4\/25\/12" }, "geometry": { "type": "Point", "coordinates": [ -84.103, 44.566 ] } }
,
{ "type": "Feature", "id": 11781, "properties": { "pull_date": "4\/30\/12", "latitude": 30.549, "longitude": -82.465, "fire_name": "COUNTY LINE", "fire_number": "FL-FNF-012017", "area": 34936.0, "report_date": "4\/29\/12" }, "geometry": { "type": "Point", "coordinates": [ -82.465, 30.549 ] } }
,
{ "type": "Feature", "id": 11782, "properties": { "pull_date": "4\/30\/12", "latitude": 30.601, "longitude": -104.207, "fire_name": "LIVERMORE RANCH FIRE", "fire_number": "TX-TXS-012024", "area": 10346.0, "report_date": "4\/29\/12" }, "geometry": { "type": "Point", "coordinates": [ -104.207, 30.601 ] } }
,
{ "type": "Feature", "id": 11783, "properties": { "pull_date": "4\/30\/12", "latitude": 30.696, "longitude": -104.316, "fire_name": "SPRING MOUNTAIN FIRE", "fire_number": "TX-TXS-012025", "area": 9980.0, "report_date": "4\/29\/12" }, "geometry": { "type": "Point", "coordinates": [ -104.316, 30.696 ] } }
,
{ "type": "Feature", "id": 11784, "properties": { "pull_date": "4\/30\/12", "latitude": 36.71, "longitude": -114.058, "fire_name": "WHITE ROCK", "fire_number": "NV-SND-500028", "area": 1086.0, "report_date": "4\/28\/12" }, "geometry": { "type": "Point", "coordinates": [ -114.058, 36.71 ] } }
,
{ "type": "Feature", "id": 11785, "properties": { "pull_date": "4\/30\/12", "latitude": 40.721, "longitude": -116.899, "fire_name": "NORTH BATTLE MOUNTAIN", "fire_number": "NV-EKD-10542", "area": 400.0, "report_date": "4\/29\/12" }, "geometry": { "type": "Point", "coordinates": [ -116.899, 40.721 ] } }
,
{ "type": "Feature", "id": 11786, "properties": { "pull_date": "4\/30\/12", "latitude": 48.533, "longitude": -95.764, "fire_name": "MOOSE RIVER FIRE", "fire_number": "MN-MNS-121-096", "area": 1000.0, "report_date": "4\/29\/12" }, "geometry": { "type": "Point", "coordinates": [ -95.764, 48.533 ] } }
,
{ "type": "Feature", "id": 11787, "properties": { "pull_date": "5\/1\/12", "latitude": 30.601, "longitude": -104.207, "fire_name": "LIVERMORE RANCH COMPLEX", "fire_number": "TX-TXS-012021", "area": 20326.0, "report_date": "4\/30\/12" }, "geometry": { "type": "Point", "coordinates": [ -104.207, 30.601 ] } }
,
{ "type": "Feature", "id": 11788, "properties": { "pull_date": "5\/1\/12", "latitude": 30.549, "longitude": -82.465, "fire_name": "COUNTY LINE", "fire_number": "FL-FNF-012017", "area": 34936.0, "report_date": "4\/30\/12" }, "geometry": { "type": "Point", "coordinates": [ -82.465, 30.549 ] } }
,
{ "type": "Feature", "id": 11789, "properties": { "pull_date": "5\/1\/12", "latitude": 30.383, "longitude": -94.363, "fire_name": "SUGAR MAPLE ROAD FIRE", "fire_number": "TX-TXS-012026", "area": 115.0, "report_date": "4\/30\/12" }, "geometry": { "type": "Point", "coordinates": [ -94.363, 30.383 ] } }
,
{ "type": "Feature", "id": 11790, "properties": { "pull_date": "5\/1\/12", "latitude": 26.159, "longitude": -81.478, "fire_name": "ROUND TWO", "fire_number": "FL-FPR-2012001", "area": 735.0, "report_date": "4\/30\/12" }, "geometry": { "type": "Point", "coordinates": [ -81.478, 26.159 ] } }
,
{ "type": "Feature", "id": 11791, "properties": { "pull_date": "5\/1\/12", "latitude": 40.721, "longitude": -116.899, "fire_name": "NORTH BATTLE MOUNTAIN", "fire_number": "NV-EKD-10542", "area": 727.0, "report_date": "4\/30\/12" }, "geometry": { "type": "Point", "coordinates": [ -116.899, 40.721 ] } }
,
{ "type": "Feature", "id": 11792, "properties": { "pull_date": "5\/1\/12", "latitude": 36.71, "longitude": -114.058, "fire_name": "WHITE ROCK", "fire_number": "NV-SND-500028", "area": 1086.0, "report_date": "4\/30\/12" }, "geometry": { "type": "Point", "coordinates": [ -114.058, 36.71 ] } }
,
{ "type": "Feature", "id": 11793, "properties": { "pull_date": "5\/1\/12", "latitude": 32.161, "longitude": -109.496, "fire_name": "APACHE PASS", "fire_number": "AZ-SAD-000241", "area": 500.0, "report_date": "4\/30\/12" }, "geometry": { "type": "Point", "coordinates": [ -109.496, 32.161 ] } }
,
{ "type": "Feature", "id": 11794, "properties": { "pull_date": "5\/2\/12", "latitude": 28.784, "longitude": -80.972, "fire_name": "FORD PROPERTY", "fire_number": "FL-FLS-2012-10-0339", "area": 245.0, "report_date": "5\/1\/12" }, "geometry": { "type": "Point", "coordinates": [ -80.972, 28.784 ] } }
,
{ "type": "Feature", "id": 11795, "properties": { "pull_date": "5\/2\/12", "latitude": 37.26, "longitude": -113.283, "fire_name": "TOQUERVILLE ASSIST 02", "fire_number": "UT-SWS-120089", "area": 500.0, "report_date": "5\/1\/12" }, "geometry": { "type": "Point", "coordinates": [ -113.283, 37.26 ] } }
,
{ "type": "Feature", "id": 11796, "properties": { "pull_date": "5\/2\/12", "latitude": 30.601, "longitude": -104.207, "fire_name": "LIVERMORE RANCH COMPLEX", "fire_number": "TX-TXS-012021", "area": 23963.0, "report_date": "5\/1\/12" }, "geometry": { "type": "Point", "coordinates": [ -104.207, 30.601 ] } }
,
{ "type": "Feature", "id": 11797, "properties": { "pull_date": "5\/2\/12", "latitude": 30.549, "longitude": -82.465, "fire_name": "COUNTY LINE", "fire_number": "FL-FNF-012017", "area": 34936.0, "report_date": "5\/1\/12" }, "geometry": { "type": "Point", "coordinates": [ -82.465, 30.549 ] } }
,
{ "type": "Feature", "id": 11798, "properties": { "pull_date": "5\/2\/12", "latitude": 30.383, "longitude": -94.363, "fire_name": "SUGAR MAPLE ROAD FIRE", "fire_number": "TX-TXS-012026", "area": 115.0, "report_date": "4\/30\/12" }, "geometry": { "type": "Point", "coordinates": [ -94.363, 30.383 ] } }
,
{ "type": "Feature", "id": 11799, "properties": { "pull_date": "5\/2\/12", "latitude": 32.161, "longitude": -109.496, "fire_name": "APACHE PASS", "fire_number": "AZ-SAD-000241", "area": 1646.0, "report_date": "5\/1\/12" }, "geometry": { "type": "Point", "coordinates": [ -109.496, 32.161 ] } }
,
{ "type": "Feature", "id": 11800, "properties": { "pull_date": "5\/3\/12", "latitude": 28.784, "longitude": -80.972, "fire_name": "FORD PROPERTY", "fire_number": "FL-FLS-2012-10-0339", "area": 245.0, "report_date": "5\/1\/12" }, "geometry": { "type": "Point", "coordinates": [ -80.972, 28.784 ] } }
,
{ "type": "Feature", "id": 11801, "properties": { "pull_date": "5\/3\/12", "latitude": 37.26, "longitude": -113.283, "fire_name": "TOQUERVILLE ASSIST 02", "fire_number": "UT-SWS-120089", "area": 500.0, "report_date": "5\/1\/12" }, "geometry": { "type": "Point", "coordinates": [ -113.283, 37.26 ] } }
,
{ "type": "Feature", "id": 11802, "properties": { "pull_date": "5\/3\/12", "latitude": 30.601, "longitude": -104.207, "fire_name": "LIVERMORE RANCH COMPLEX", "fire_number": "TX-TXS-012021", "area": 23963.0, "report_date": "5\/1\/12" }, "geometry": { "type": "Point", "coordinates": [ -104.207, 30.601 ] } }
,
{ "type": "Feature", "id": 11803, "properties": { "pull_date": "5\/3\/12", "latitude": 30.549, "longitude": -82.465, "fire_name": "COUNTY LINE", "fire_number": "FL-FNF-012017", "area": 34936.0, "report_date": "5\/1\/12" }, "geometry": { "type": "Point", "coordinates": [ -82.465, 30.549 ] } }
,
{ "type": "Feature", "id": 11804, "properties": { "pull_date": "5\/3\/12", "latitude": 30.383, "longitude": -94.363, "fire_name": "SUGAR MAPLE ROAD FIRE", "fire_number": "TX-TXS-012026", "area": 115.0, "report_date": "4\/30\/12" }, "geometry": { "type": "Point", "coordinates": [ -94.363, 30.383 ] } }
,
{ "type": "Feature", "id": 11805, "properties": { "pull_date": "5\/3\/12", "latitude": 32.161, "longitude": -109.496, "fire_name": "APACHE PASS", "fire_number": "AZ-SAD-000241", "area": 1646.0, "report_date": "5\/1\/12" }, "geometry": { "type": "Point", "coordinates": [ -109.496, 32.161 ] } }
,
{ "type": "Feature", "id": 11806, "properties": { "pull_date": "5\/4\/12", "latitude": 28.784, "longitude": -80.972, "fire_name": "FORD PROPERTY", "fire_number": "FL-FLS-2012-10-0339", "area": 245.0, "report_date": "5\/1\/12" }, "geometry": { "type": "Point", "coordinates": [ -80.972, 28.784 ] } }
,
{ "type": "Feature", "id": 11807, "properties": { "pull_date": "5\/4\/12", "latitude": 37.26, "longitude": -113.283, "fire_name": "TOQUERVILLE ASSIST 02", "fire_number": "UT-SWS-120089", "area": 500.0, "report_date": "5\/1\/12" }, "geometry": { "type": "Point", "coordinates": [ -113.283, 37.26 ] } }
,
{ "type": "Feature", "id": 11808, "properties": { "pull_date": "5\/4\/12", "latitude": 30.601, "longitude": -104.207, "fire_name": "LIVERMORE RANCH COMPLEX", "fire_number": "TX-TXS-012021", "area": 23963.0, "report_date": "5\/1\/12" }, "geometry": { "type": "Point", "coordinates": [ -104.207, 30.601 ] } }
,
{ "type": "Feature", "id": 11809, "properties": { "pull_date": "5\/4\/12", "latitude": 30.549, "longitude": -82.465, "fire_name": "COUNTY LINE", "fire_number": "FL-FNF-012017", "area": 34936.0, "report_date": "5\/1\/12" }, "geometry": { "type": "Point", "coordinates": [ -82.465, 30.549 ] } }
,
{ "type": "Feature", "id": 11810, "properties": { "pull_date": "5\/4\/12", "latitude": 30.383, "longitude": -94.363, "fire_name": "SUGAR MAPLE ROAD FIRE", "fire_number": "TX-TXS-012026", "area": 115.0, "report_date": "4\/30\/12" }, "geometry": { "type": "Point", "coordinates": [ -94.363, 30.383 ] } }
,
{ "type": "Feature", "id": 11811, "properties": { "pull_date": "5\/4\/12", "latitude": 32.161, "longitude": -109.496, "fire_name": "APACHE PASS", "fire_number": "AZ-SAD-000241", "area": 1646.0, "report_date": "5\/1\/12" }, "geometry": { "type": "Point", "coordinates": [ -109.496, 32.161 ] } }
,
{ "type": "Feature", "id": 11812, "properties": { "pull_date": "5\/5\/12", "latitude": 28.784, "longitude": -80.972, "fire_name": "FORD PROPERTY", "fire_number": "FL-FLS-2012-10-0339", "area": 245.0, "report_date": "5\/1\/12" }, "geometry": { "type": "Point", "coordinates": [ -80.972, 28.784 ] } }
,
{ "type": "Feature", "id": 11813, "properties": { "pull_date": "5\/5\/12", "latitude": 30.601, "longitude": -104.207, "fire_name": "LIVERMORE RANCH COMPLEX", "fire_number": "TX-TXS-012021", "area": 23963.0, "report_date": "5\/1\/12" }, "geometry": { "type": "Point", "coordinates": [ -104.207, 30.601 ] } }
,
{ "type": "Feature", "id": 11814, "properties": { "pull_date": "5\/5\/12", "latitude": 30.549, "longitude": -82.465, "fire_name": "COUNTY LINE", "fire_number": "FL-FNF-012017", "area": 34936.0, "report_date": "5\/1\/12" }, "geometry": { "type": "Point", "coordinates": [ -82.465, 30.549 ] } }
,
{ "type": "Feature", "id": 11815, "properties": { "pull_date": "5\/5\/12", "latitude": 32.161, "longitude": -109.496, "fire_name": "APACHE PASS", "fire_number": "AZ-SAD-000241", "area": 1646.0, "report_date": "5\/1\/12" }, "geometry": { "type": "Point", "coordinates": [ -109.496, 32.161 ] } }
,
{ "type": "Feature", "id": 11816, "properties": { "pull_date": "5\/6\/12", "latitude": 30.601, "longitude": -104.207, "fire_name": "LIVERMORE RANCH COMPLEX", "fire_number": "TX-TXS-012021", "area": 24117.0, "report_date": "5\/5\/12" }, "geometry": { "type": "Point", "coordinates": [ -104.207, 30.601 ] } }
,
{ "type": "Feature", "id": 11817, "properties": { "pull_date": "5\/6\/12", "latitude": 30.549, "longitude": -82.465, "fire_name": "COUNTY LINE", "fire_number": "FL-FNF-012017", "area": 34936.0, "report_date": "5\/5\/12" }, "geometry": { "type": "Point", "coordinates": [ -82.465, 30.549 ] } }
,
{ "type": "Feature", "id": 11818, "properties": { "pull_date": "5\/6\/12", "latitude": 28.784, "longitude": -80.972, "fire_name": "FORD PROPERTY", "fire_number": "FL-FLS-2012-10-0339", "area": 401.0, "report_date": "5\/5\/12" }, "geometry": { "type": "Point", "coordinates": [ -80.972, 28.784 ] } }
,
{ "type": "Feature", "id": 11819, "properties": { "pull_date": "5\/6\/12", "latitude": 32.161, "longitude": -109.496, "fire_name": "APACHE PASS", "fire_number": "AZ-SAD-000241", "area": 1690.0, "report_date": "5\/5\/12" }, "geometry": { "type": "Point", "coordinates": [ -109.496, 32.161 ] } }
,
{ "type": "Feature", "id": 11820, "properties": { "pull_date": "5\/7\/12", "latitude": 30.601, "longitude": -104.207, "fire_name": "LIVERMORE RANCH COMPLEX", "fire_number": "TX-TXS-012021", "area": 24241.0, "report_date": "5\/6\/12" }, "geometry": { "type": "Point", "coordinates": [ -104.207, 30.601 ] } }
,
{ "type": "Feature", "id": 11821, "properties": { "pull_date": "5\/7\/12", "latitude": 30.549, "longitude": -82.465, "fire_name": "COUNTY LINE", "fire_number": "FL-FNF-012017", "area": 34936.0, "report_date": "5\/6\/12" }, "geometry": { "type": "Point", "coordinates": [ -82.465, 30.549 ] } }
,
{ "type": "Feature", "id": 11822, "properties": { "pull_date": "5\/7\/12", "latitude": 28.784, "longitude": -80.972, "fire_name": "FORD PROPERTY", "fire_number": "FL-FLS-2012-10-0339", "area": 401.0, "report_date": "5\/5\/12" }, "geometry": { "type": "Point", "coordinates": [ -80.972, 28.784 ] } }
,
{ "type": "Feature", "id": 11823, "properties": { "pull_date": "5\/8\/12", "latitude": 26.332, "longitude": -80.64, "fire_name": "CINCO DE MAYO", "fire_number": "FL-FLS-2012-18-0150", "area": 5159.0, "report_date": "5\/7\/12" }, "geometry": { "type": "Point", "coordinates": [ -80.64, 26.332 ] } }
,
{ "type": "Feature", "id": 11824, "properties": { "pull_date": "5\/8\/12", "latitude": 26.093, "longitude": -80.674, "fire_name": "ALLEY SOUTH", "fire_number": "FL-FLS-2012-18-0152", "area": 1100.0, "report_date": "5\/7\/12" }, "geometry": { "type": "Point", "coordinates": [ -80.674, 26.093 ] } }
,
{ "type": "Feature", "id": 11825, "properties": { "pull_date": "5\/8\/12", "latitude": 28.134, "longitude": -81.169, "fire_name": "TARPON", "fire_number": "FL-FLS-2012-12-0274", "area": 400.0, "report_date": "5\/7\/12" }, "geometry": { "type": "Point", "coordinates": [ -81.169, 28.134 ] } }
,
{ "type": "Feature", "id": 11826, "properties": { "pull_date": "5\/9\/12", "latitude": 26.332, "longitude": -80.64, "fire_name": "CINCO DE MAYO", "fire_number": "FL-FLS-2012-18-0150", "area": 5159.0, "report_date": "5\/8\/12" }, "geometry": { "type": "Point", "coordinates": [ -80.64, 26.332 ] } }
,
{ "type": "Feature", "id": 11827, "properties": { "pull_date": "5\/9\/12", "latitude": 26.093, "longitude": -80.674, "fire_name": "ALLEY SOUTH", "fire_number": "FL-FLS-2012-18-0152", "area": 1100.0, "report_date": "5\/7\/12" }, "geometry": { "type": "Point", "coordinates": [ -80.674, 26.093 ] } }
,
{ "type": "Feature", "id": 11828, "properties": { "pull_date": "5\/9\/12", "latitude": 27.742, "longitude": -80.572, "fire_name": "SAND HILL", "fire_number": "FL-FLS-2012-16-0318", "area": 350.0, "report_date": "5\/8\/12" }, "geometry": { "type": "Point", "coordinates": [ -80.572, 27.742 ] } }
,
{ "type": "Feature", "id": 11829, "properties": { "pull_date": "5\/9\/12", "latitude": 29.107, "longitude": -81.701, "fire_name": "BOMB RANGE 24", "fire_number": "FL-FNF-012022", "area": 450.0, "report_date": "5\/7\/12" }, "geometry": { "type": "Point", "coordinates": [ -81.701, 29.107 ] } }
,
{ "type": "Feature", "id": 11830, "properties": { "pull_date": "5\/9\/12", "latitude": 31.333, "longitude": -110.416, "fire_name": "SCHOOL CANYON", "fire_number": "AZ-CNF-000263", "area": 7770.0, "report_date": "5\/8\/12" }, "geometry": { "type": "Point", "coordinates": [ -110.416, 31.333 ] } }
,
{ "type": "Feature", "id": 11831, "properties": { "pull_date": "5\/10\/12", "latitude": 26.332, "longitude": -80.64, "fire_name": "CINCO DE MAYO", "fire_number": "FL-FLS-2012-18-0150", "area": 5159.0, "report_date": "5\/8\/12" }, "geometry": { "type": "Point", "coordinates": [ -80.64, 26.332 ] } }
,
{ "type": "Feature", "id": 11832, "properties": { "pull_date": "5\/10\/12", "latitude": 26.093, "longitude": -80.674, "fire_name": "ALLEY SOUTH", "fire_number": "FL-FLS-2012-18-0152", "area": 1100.0, "report_date": "5\/7\/12" }, "geometry": { "type": "Point", "coordinates": [ -80.674, 26.093 ] } }
,
{ "type": "Feature", "id": 11833, "properties": { "pull_date": "5\/10\/12", "latitude": 27.742, "longitude": -80.572, "fire_name": "SAND HILL", "fire_number": "FL-FLS-2012-16-0318", "area": 350.0, "report_date": "5\/8\/12" }, "geometry": { "type": "Point", "coordinates": [ -80.572, 27.742 ] } }
,
{ "type": "Feature", "id": 11834, "properties": { "pull_date": "5\/10\/12", "latitude": 31.333, "longitude": -110.416, "fire_name": "SCHOOL CANYON", "fire_number": "AZ-CNF-000263", "area": 7049.0, "report_date": "5\/9\/12" }, "geometry": { "type": "Point", "coordinates": [ -110.416, 31.333 ] } }
,
{ "type": "Feature", "id": 11835, "properties": { "pull_date": "5\/11\/12", "latitude": 26.332, "longitude": -80.64, "fire_name": "CINCO DE MAYO", "fire_number": "FL-FLS-2012-18-0150", "area": 5259.0, "report_date": "5\/10\/12" }, "geometry": { "type": "Point", "coordinates": [ -80.64, 26.332 ] } }
,
{ "type": "Feature", "id": 11836, "properties": { "pull_date": "5\/11\/12", "latitude": 26.093, "longitude": -80.674, "fire_name": "ALLEY SOUTH", "fire_number": "FL-FLS-2012-18-0152", "area": 1350.0, "report_date": "5\/10\/12" }, "geometry": { "type": "Point", "coordinates": [ -80.674, 26.093 ] } }
,
{ "type": "Feature", "id": 11837, "properties": { "pull_date": "5\/11\/12", "latitude": 28.658, "longitude": -80.747, "fire_name": "CENTER", "fire_number": "FL-MIR-201221", "area": 800.0, "report_date": "5\/10\/12" }, "geometry": { "type": "Point", "coordinates": [ -80.747, 28.658 ] } }
,
{ "type": "Feature", "id": 11838, "properties": { "pull_date": "5\/11\/12", "latitude": 37.423, "longitude": -115.002, "fire_name": "PAHROC", "fire_number": "NV-ELD-40022", "area": 500.0, "report_date": "5\/10\/12" }, "geometry": { "type": "Point", "coordinates": [ -115.002, 37.423 ] } }
,
{ "type": "Feature", "id": 11839, "properties": { "pull_date": "5\/11\/12", "latitude": 31.333, "longitude": -110.416, "fire_name": "SCHOOL CANYON", "fire_number": "AZ-CNF-000263", "area": 7049.0, "report_date": "5\/10\/12" }, "geometry": { "type": "Point", "coordinates": [ -110.416, 31.333 ] } }
,
{ "type": "Feature", "id": 11840, "properties": { "pull_date": "5\/12\/12", "latitude": 41.686, "longitude": -118.501, "fire_name": "MM 47", "fire_number": "NV-WID-20052", "area": 892.0, "report_date": "5\/11\/12" }, "geometry": { "type": "Point", "coordinates": [ -118.501, 41.686 ] } }
,
{ "type": "Feature", "id": 11841, "properties": { "pull_date": "5\/12\/12", "latitude": 28.658, "longitude": -80.747, "fire_name": "CENTER", "fire_number": "FL-MIR-201221", "area": 800.0, "report_date": "5\/10\/12" }, "geometry": { "type": "Point", "coordinates": [ -80.747, 28.658 ] } }
,
{ "type": "Feature", "id": 11842, "properties": { "pull_date": "5\/12\/12", "latitude": 34.231, "longitude": -110.782, "fire_name": "BULL FLAT FIRE", "fire_number": "AZ-FTA-0060", "area": 500.0, "report_date": "5\/11\/12" }, "geometry": { "type": "Point", "coordinates": [ -110.782, 34.231 ] } }
,
{ "type": "Feature", "id": 11843, "properties": { "pull_date": "5\/13\/12", "latitude": 37.423, "longitude": -115.002, "fire_name": "PAHROC", "fire_number": "NV-ELD-40022", "area": 3900.0, "report_date": "5\/12\/12" }, "geometry": { "type": "Point", "coordinates": [ -115.002, 37.423 ] } }
,
{ "type": "Feature", "id": 11844, "properties": { "pull_date": "5\/13\/12", "latitude": 41.686, "longitude": -118.501, "fire_name": "MM 47", "fire_number": "NV-WID-20052", "area": 892.0, "report_date": "5\/12\/12" }, "geometry": { "type": "Point", "coordinates": [ -118.501, 41.686 ] } }
,
{ "type": "Feature", "id": 11845, "properties": { "pull_date": "5\/13\/12", "latitude": 28.658, "longitude": -80.747, "fire_name": "CENTER", "fire_number": "FL-MIR-201221", "area": 800.0, "report_date": "5\/10\/12" }, "geometry": { "type": "Point", "coordinates": [ -80.747, 28.658 ] } }
,
{ "type": "Feature", "id": 11846, "properties": { "pull_date": "5\/13\/12", "latitude": 34.231, "longitude": -110.782, "fire_name": "BULL FLAT FIRE", "fire_number": "AZ-FTA-0060", "area": 500.0, "report_date": "5\/12\/12" }, "geometry": { "type": "Point", "coordinates": [ -110.782, 34.231 ] } }
,
{ "type": "Feature", "id": 11847, "properties": { "pull_date": "5\/14\/12", "latitude": 33.931, "longitude": -111.474, "fire_name": "SUNFLOWER", "fire_number": "AZ-TNF-039", "area": 3100.0, "report_date": "5\/13\/12" }, "geometry": { "type": "Point", "coordinates": [ -111.474, 33.931 ] } }
,
{ "type": "Feature", "id": 11848, "properties": { "pull_date": "5\/14\/12", "latitude": 37.423, "longitude": -115.002, "fire_name": "PAHROC", "fire_number": "NV-ELD-40022", "area": 4123.0, "report_date": "5\/13\/12" }, "geometry": { "type": "Point", "coordinates": [ -115.002, 37.423 ] } }
,
{ "type": "Feature", "id": 11849, "properties": { "pull_date": "5\/14\/12", "latitude": 45.314, "longitude": -106.177, "fire_name": "STAG", "fire_number": "MT-CNF-010", "area": 350.0, "report_date": "5\/13\/12" }, "geometry": { "type": "Point", "coordinates": [ -106.177, 45.314 ] } }
,
{ "type": "Feature", "id": 11850, "properties": { "pull_date": "5\/14\/12", "latitude": 33.538, "longitude": -109.904, "fire_name": "ELWOOD", "fire_number": "AZ-SCA-000051", "area": 1137.0, "report_date": "5\/13\/12" }, "geometry": { "type": "Point", "coordinates": [ -109.904, 33.538 ] } }
,
{ "type": "Feature", "id": 11851, "properties": { "pull_date": "5\/14\/12", "latitude": 34.231, "longitude": -110.782, "fire_name": "BULL FLAT", "fire_number": "AZ-FTA-0060", "area": -1.0, "report_date": "5\/13\/12" }, "geometry": { "type": "Point", "coordinates": [ -110.782, 34.231 ] } }
,
{ "type": "Feature", "id": 11852, "properties": { "pull_date": "5\/14\/12", "latitude": 34.215, "longitude": -112.334, "fire_name": "GLADIATOR", "fire_number": "AZ-A1S-423", "area": 600.0, "report_date": "5\/13\/12" }, "geometry": { "type": "Point", "coordinates": [ -112.334, 34.215 ] } }
,
{ "type": "Feature", "id": 11853, "properties": { "pull_date": "5\/15\/12", "latitude": 33.931, "longitude": -111.474, "fire_name": "SUNFLOWER", "fire_number": "AZ-TNF-039", "area": 4600.0, "report_date": "5\/14\/12" }, "geometry": { "type": "Point", "coordinates": [ -111.474, 33.931 ] } }
,
{ "type": "Feature", "id": 11854, "properties": { "pull_date": "5\/15\/12", "latitude": 37.423, "longitude": -115.002, "fire_name": "PAHROC", "fire_number": "NV-ELD-40022", "area": 4123.0, "report_date": "5\/14\/12" }, "geometry": { "type": "Point", "coordinates": [ -115.002, 37.423 ] } }
,
{ "type": "Feature", "id": 11855, "properties": { "pull_date": "5\/15\/12", "latitude": 39.918, "longitude": -117.339, "fire_name": "ANTELOPE COMPLEX", "fire_number": "NV-BMD-20054", "area": 3500.0, "report_date": "5\/14\/12" },