{
"type": "FeatureCollection",
                                                                                
"features": [
{ "type": "Feature", "id": 5273, "properties": { "pull_date": "1\/7\/11", "latitude": 26.875, "longitude": -80.454, "fire_name": "DEEP CYPRESS", "fire_number": "FL-FLS-2010-18-0213", "area": 350.0, "report_date": "1\/1\/11" }, "geometry": { "type": "Point", "coordinates": [ -80.454, 26.875 ] } }
,
{ "type": "Feature", "id": 5274, "properties": { "pull_date": "1\/7\/11", "latitude": 27.643, "longitude": -98.012, "fire_name": "FM2508 FIRE", "fire_number": "TX-TXS-11001", "area": 3000.0, "report_date": "1\/1\/11" }, "geometry": { "type": "Point", "coordinates": [ -98.012, 27.643 ] } }
,
{ "type": "Feature", "id": 5275, "properties": { "pull_date": "1\/7\/11", "latitude": 35.749, "longitude": -94.534, "fire_name": "MUSKRAT MOUNTAIN", "fire_number": "OK-NEU-11-30010", "area": 326.0, "report_date": "1\/5\/11" }, "geometry": { "type": "Point", "coordinates": [ -94.534, 35.749 ] } }
,
{ "type": "Feature", "id": 5276, "properties": { "pull_date": "1\/7\/11", "latitude": 27.943, "longitude": -80.786, "fire_name": "FORKS", "fire_number": "FL-FLS-2010-12-0715", "area": 13000.0, "report_date": "12\/28\/10" }, "geometry": { "type": "Point", "coordinates": [ -80.786, 27.943 ] } }
,
{ "type": "Feature", "id": 5277, "properties": { "pull_date": "1\/7\/11", "latitude": 26.057, "longitude": -81.531, "fire_name": "BLACK BEAR FIRE", "fire_number": "FL-FLS-2011-17-0005", "area": 300.0, "report_date": "1\/6\/11" }, "geometry": { "type": "Point", "coordinates": [ -81.531, 26.057 ] } }
,
{ "type": "Feature", "id": 5278, "properties": { "pull_date": "1\/7\/11", "latitude": 36.21, "longitude": -92.605, "fire_name": "HALL MT.", "fire_number": "AR-ARS-001D7", "area": 134.0, "report_date": "1\/5\/11" }, "geometry": { "type": "Point", "coordinates": [ -92.605, 36.21 ] } }
,
{ "type": "Feature", "id": 5279, "properties": { "pull_date": "1\/14\/11", "latitude": 35.025, "longitude": -95.549, "fire_name": "HOOKS BLUFF", "fire_number": "OK-ECU-11-20006", "area": 120.0, "report_date": "1\/9\/11" }, "geometry": { "type": "Point", "coordinates": [ -95.549, 35.025 ] } }
,
{ "type": "Feature", "id": 5280, "properties": { "pull_date": "1\/14\/11", "latitude": 34.692, "longitude": -95.588, "fire_name": "COLORADO", "fire_number": "OK-ECU-20009", "area": 300.0, "report_date": "1\/8\/11" }, "geometry": { "type": "Point", "coordinates": [ -95.588, 34.692 ] } }
,
{ "type": "Feature", "id": 5281, "properties": { "pull_date": "1\/14\/11", "latitude": 35.35, "longitude": -96.063, "fire_name": "KEHAYKE", "fire_number": "OK-OMA-011004", "area": 193.8, "report_date": "1\/11\/11" }, "geometry": { "type": "Point", "coordinates": [ -96.063, 35.35 ] } }
,
{ "type": "Feature", "id": 5282, "properties": { "pull_date": "1\/14\/11", "latitude": 30.295, "longitude": -89.467, "fire_name": "MAPLE", "fire_number": "MS-MSS-600111", "area": 180.0, "report_date": "1\/11\/11" }, "geometry": { "type": "Point", "coordinates": [ -89.467, 30.295 ] } }
,
{ "type": "Feature", "id": 5283, "properties": { "pull_date": "1\/21\/11", "latitude": 27.527, "longitude": -81.255, "fire_name": "TRACER", "fire_number": "FL-FLS-2011-16-0055", "area": 1089.0, "report_date": "1\/15\/11" }, "geometry": { "type": "Point", "coordinates": [ -81.255, 27.527 ] } }
,
{ "type": "Feature", "id": 5284, "properties": { "pull_date": "1\/21\/11", "latitude": 35.523, "longitude": -95.764, "fire_name": "CUKORAKKO", "fire_number": "OK-OMA-011003", "area": 134.0, "report_date": "1\/15\/11" }, "geometry": { "type": "Point", "coordinates": [ -95.764, 35.523 ] } }
,
{ "type": "Feature", "id": 5285, "properties": { "pull_date": "1\/28\/11", "latitude": 30.574, "longitude": -86.831, "fire_name": "BEAR CREEK", "fire_number": "FL-EAQ-1103", "area": 700.0, "report_date": "1\/25\/11" }, "geometry": { "type": "Point", "coordinates": [ -86.831, 30.574 ] } }
,
{ "type": "Feature", "id": 5286, "properties": { "pull_date": "1\/28\/11", "latitude": 29.328, "longitude": -81.801, "fire_name": "CARDINAL 2", "fire_number": "FL-FNF--011016", "area": 410.0, "report_date": "1\/25\/11" }, "geometry": { "type": "Point", "coordinates": [ -81.801, 29.328 ] } }
,
{ "type": "Feature", "id": 5287, "properties": { "pull_date": "1\/28\/11", "latitude": 32.678, "longitude": -103.421, "fire_name": "IRON DRAW", "fire_number": "NM-N5S-100", "area": 520.0, "report_date": "1\/26\/11" }, "geometry": { "type": "Point", "coordinates": [ -103.421, 32.678 ] } }
,
{ "type": "Feature", "id": 5288, "properties": { "pull_date": "1\/28\/11", "latitude": 35.086, "longitude": -96.003, "fire_name": "WHISKEY BOTTOMS", "fire_number": "OK-ECU-11-42001", "area": 800.0, "report_date": "1\/27\/11" }, "geometry": { "type": "Point", "coordinates": [ -96.003, 35.086 ] } }
,
{ "type": "Feature", "id": 5289, "properties": { "pull_date": "2\/4\/11", "latitude": 30.828, "longitude": -101.322, "fire_name": "COUNTY RD. 204 COMPLEX", "fire_number": "TX-TXS-11002", "area": 3280.0, "report_date": "1\/29\/11" }, "geometry": { "type": "Point", "coordinates": [ -101.322, 30.828 ] } }
,
{ "type": "Feature", "id": 5290, "properties": { "pull_date": "2\/4\/11", "latitude": 35.738, "longitude": -95.092, "fire_name": "CEDAR BLUFF", "fire_number": "OK-NEU-11-30055", "area": 1300.0, "report_date": "1\/30\/11" }, "geometry": { "type": "Point", "coordinates": [ -95.092, 35.738 ] } }
,
{ "type": "Feature", "id": 5291, "properties": { "pull_date": "2\/4\/11", "latitude": 33.905, "longitude": -100.672, "fire_name": "BIRD", "fire_number": "TX-TXS-11003", "area": 600.0, "report_date": "1\/29\/11" }, "geometry": { "type": "Point", "coordinates": [ -100.672, 33.905 ] } }
,
{ "type": "Feature", "id": 5292, "properties": { "pull_date": "2\/4\/11", "latitude": 32.352, "longitude": -100.425, "fire_name": "TRAMMEL", "fire_number": "TX-TXS-11005", "area": 600.0, "report_date": "1\/30\/11" }, "geometry": { "type": "Point", "coordinates": [ -100.425, 32.352 ] } }
,
{ "type": "Feature", "id": 5293, "properties": { "pull_date": "2\/4\/11", "latitude": 32.518, "longitude": -98.682, "fire_name": "BULLOCK", "fire_number": "TX-TXS-11004", "area": 350.0, "report_date": "1\/29\/11" }, "geometry": { "type": "Point", "coordinates": [ -98.682, 32.518 ] } }
,
{ "type": "Feature", "id": 5294, "properties": { "pull_date": "2\/4\/11", "latitude": 36.475, "longitude": -94.841, "fire_name": "HANDLE HOLLOW", "fire_number": "OK-NEU-11-30048", "area": 200.0, "report_date": "1\/29\/11" }, "geometry": { "type": "Point", "coordinates": [ -94.841, 36.475 ] } }
,
{ "type": "Feature", "id": 5295, "properties": { "pull_date": "2\/4\/11", "latitude": 35.783, "longitude": -94.71, "fire_name": "CITY LAKE", "fire_number": "OK-NEU-11-30047", "area": 170.0, "report_date": "1\/30\/11" }, "geometry": { "type": "Point", "coordinates": [ -94.71, 35.783 ] } }
,
{ "type": "Feature", "id": 5296, "properties": { "pull_date": "2\/4\/11", "latitude": 35.201, "longitude": -95.98, "fire_name": "LVCCE", "fire_number": "OK-OMA-011012", "area": 176.0, "report_date": "1\/30\/11" }, "geometry": { "type": "Point", "coordinates": [ -95.98, 35.201 ] } }
,
{ "type": "Feature", "id": 5297, "properties": { "pull_date": "2\/4\/11", "latitude": 34.701, "longitude": -95.651, "fire_name": "MAIN STREET", "fire_number": "OK-ECU-11-20043", "area": 6000.0, "report_date": "1\/30\/11" }, "geometry": { "type": "Point", "coordinates": [ -95.651, 34.701 ] } }
,
{ "type": "Feature", "id": 5298, "properties": { "pull_date": "2\/4\/11", "latitude": 34.79, "longitude": -95.599, "fire_name": "ALTON", "fire_number": "OK-ECU-11-20042", "area": 525.0, "report_date": "1\/30\/11" }, "geometry": { "type": "Point", "coordinates": [ -95.599, 34.79 ] } }
,
{ "type": "Feature", "id": 5299, "properties": { "pull_date": "2\/4\/11", "latitude": 35.199, "longitude": -95.861, "fire_name": "ECCUSTE", "fire_number": "OK-OMA-011016", "area": 309.0, "report_date": "1\/30\/11" }, "geometry": { "type": "Point", "coordinates": [ -95.861, 35.199 ] } }
,
{ "type": "Feature", "id": 5300, "properties": { "pull_date": "2\/4\/11", "latitude": 34.7, "longitude": -95.556, "fire_name": "TI VALLEY", "fire_number": "OK-ECU-11-20024", "area": 2000.0, "report_date": "1\/28\/11" }, "geometry": { "type": "Point", "coordinates": [ -95.556, 34.7 ] } }
,
{ "type": "Feature", "id": 5301, "properties": { "pull_date": "2\/4\/11", "latitude": 34.869, "longitude": -95.626, "fire_name": "HIGH HILL", "fire_number": "OK-ECU-11-20040", "area": 320.0, "report_date": "1\/29\/11" }, "geometry": { "type": "Point", "coordinates": [ -95.626, 34.869 ] } }
,
{ "type": "Feature", "id": 5302, "properties": { "pull_date": "2\/4\/11", "latitude": 34.746, "longitude": -95.978, "fire_name": "ASHLAND", "fire_number": "OK-ECU-11-42002", "area": 1000.0, "report_date": "1\/31\/11" }, "geometry": { "type": "Point", "coordinates": [ -95.978, 34.746 ] } }
,
{ "type": "Feature", "id": 5303, "properties": { "pull_date": "2\/4\/11", "latitude": 35.745, "longitude": -95.088, "fire_name": "SNOW", "fire_number": "OK-NEU-11-30061", "area": 135.0, "report_date": "1\/31\/11" }, "geometry": { "type": "Point", "coordinates": [ -95.088, 35.745 ] } }
,
{ "type": "Feature", "id": 5304, "properties": { "pull_date": "2\/4\/11", "latitude": 35.879, "longitude": -98.032, "fire_name": "SMOKY HILL WIND FARM", "fire_number": "KS-KSX-0060", "area": 400.0, "report_date": "2\/1\/11" }, "geometry": { "type": "Point", "coordinates": [ -98.032, 35.879 ] } }
,
{ "type": "Feature", "id": 5305, "properties": { "pull_date": "2\/4\/11", "latitude": 26.77, "longitude": -81.526, "fire_name": "KIRBY FIRE", "fire_number": "FL-FLS-2011-16-0096", "area": 319.0, "report_date": "2\/2\/11" }, "geometry": { "type": "Point", "coordinates": [ -81.526, 26.77 ] } }
,
{ "type": "Feature", "id": 5306, "properties": { "pull_date": "2\/4\/11", "latitude": 31.599, "longitude": -110.558, "fire_name": "JELKS", "fire_number": "AZ-SAD-011008", "area": 716.0, "report_date": "1\/28\/11" }, "geometry": { "type": "Point", "coordinates": [ -110.558, 31.599 ] } }
,
{ "type": "Feature", "id": 5307, "properties": { "pull_date": "2\/4\/11", "latitude": 34.038, "longitude": -93.388, "fire_name": "MEEKS", "fire_number": "AR-ARS-25D5", "area": 142.0, "report_date": "1\/31\/11" }, "geometry": { "type": "Point", "coordinates": [ -93.388, 34.038 ] } }
,
{ "type": "Feature", "id": 5308, "properties": { "pull_date": "2\/4\/11", "latitude": 34.53, "longitude": -94.302, "fire_name": "COUNTY ROAD 412", "fire_number": "AR-ARS-412D2", "area": 114.0, "report_date": "1\/31\/11" }, "geometry": { "type": "Point", "coordinates": [ -94.302, 34.53 ] } }
,
{ "type": "Feature", "id": 5309, "properties": { "pull_date": "2\/11\/11", "latitude": 27.844, "longitude": -81.811, "fire_name": "IMC PARK COMMAND", "fire_number": "FL-FLS-2011-14-0104", "area": 500.0, "report_date": "2\/4\/11" }, "geometry": { "type": "Point", "coordinates": [ -81.811, 27.844 ] } }
,
{ "type": "Feature", "id": 5310, "properties": { "pull_date": "2\/11\/11", "latitude": 27.157, "longitude": -98.055, "fire_name": "MARIPOSA RANCH", "fire_number": "TX-TXS-11006", "area": 3000.0, "report_date": "2\/8\/11" }, "geometry": { "type": "Point", "coordinates": [ -98.055, 27.157 ] } }
,
{ "type": "Feature", "id": 5311, "properties": { "pull_date": "2\/11\/11", "latitude": 25.947, "longitude": -81.281, "fire_name": "YES", "fire_number": "FL-BCP-00004", "area": 1200.0, "report_date": "2\/8\/11" }, "geometry": { "type": "Point", "coordinates": [ -81.281, 25.947 ] } }
,
{ "type": "Feature", "id": 5312, "properties": { "pull_date": "2\/11\/11", "latitude": 27.996, "longitude": -81.461, "fire_name": "BENT PINE FIRE", "fire_number": "FL-FLS-2011-14-0109", "area": 125.0, "report_date": "2\/8\/11" }, "geometry": { "type": "Point", "coordinates": [ -81.461, 27.996 ] } }
,
{ "type": "Feature", "id": 5313, "properties": { "pull_date": "2\/11\/11", "latitude": 27.347, "longitude": -81.457, "fire_name": "PASO FINO FIRE", "fire_number": "FL-FLS-2011-16-0125", "area": 300.0, "report_date": "2\/8\/11" }, "geometry": { "type": "Point", "coordinates": [ -81.457, 27.347 ] } }
,
{ "type": "Feature", "id": 5314, "properties": { "pull_date": "2\/18\/11", "latitude": 36.781, "longitude": -92.753, "fire_name": "WATERHOLE", "fire_number": "MO-MTF-000010", "area": 125.0, "report_date": "2\/19\/11" }, "geometry": { "type": "Point", "coordinates": [ -92.753, 36.781 ] } }
,
{ "type": "Feature", "id": 5315, "properties": { "pull_date": "2\/18\/11", "latitude": 35.753, "longitude": -101.963, "fire_name": "MOORE COUNTY", "fire_number": "TX-TXS-11014", "area": 7943.0, "report_date": "2\/19\/11" }, "geometry": { "type": "Point", "coordinates": [ -101.963, 35.753 ] } }
,
{ "type": "Feature", "id": 5316, "properties": { "pull_date": "2\/18\/11", "latitude": 36.327, "longitude": -100.275, "fire_name": "LIPSCOMB COUNTY COMPLEX", "fire_number": "TX-TXS-11012", "area": 15908.0, "report_date": "2\/19\/11" }, "geometry": { "type": "Point", "coordinates": [ -100.275, 36.327 ] } }
,
{ "type": "Feature", "id": 5317, "properties": { "pull_date": "2\/18\/11", "latitude": 35.394, "longitude": -82.259, "fire_name": "JUDES GAP", "fire_number": "NC-NCS-11-075-005", "area": 1474.0, "report_date": "2\/19\/11" }, "geometry": { "type": "Point", "coordinates": [ -82.259, 35.394 ] } }
,
{ "type": "Feature", "id": 5318, "properties": { "pull_date": "2\/18\/11", "latitude": 36.549, "longitude": -80.868, "fire_name": "LUMBER PLANT", "fire_number": "NC-NCS-11086009", "area": 737.0, "report_date": "2\/19\/11" }, "geometry": { "type": "Point", "coordinates": [ -80.868, 36.549 ] } }
,
{ "type": "Feature", "id": 5319, "properties": { "pull_date": "2\/18\/11", "latitude": 37.503, "longitude": -82.204, "fire_name": "CALLOWAY BRANCH", "fire_number": "KY-KYS-11-9007", "area": 165.0, "report_date": "2\/19\/11" }, "geometry": { "type": "Point", "coordinates": [ -82.204, 37.503 ] } }
,
{ "type": "Feature", "id": 5320, "properties": { "pull_date": "2\/18\/11", "latitude": 37.524, "longitude": -82.675, "fire_name": "BIG BRANCH OF LITTLE MUD", "fire_number": "KY-KYS-119006", "area": 180.0, "report_date": "2\/19\/11" }, "geometry": { "type": "Point", "coordinates": [ -82.675, 37.524 ] } }
,
{ "type": "Feature", "id": 5321, "properties": { "pull_date": "2\/18\/11", "latitude": 37.728, "longitude": -82.149, "fire_name": "ROWE", "fire_number": "KY-KYS-11-9005", "area": 307.0, "report_date": "2\/19\/11" }, "geometry": { "type": "Point", "coordinates": [ -82.149, 37.728 ] } }
,
{ "type": "Feature", "id": 5322, "properties": { "pull_date": "2\/18\/11", "latitude": 38.808, "longitude": -78.194, "fire_name": "SMITH RUN FIRE", "fire_number": "VA-SHP-010006", "area": 350.0, "report_date": "2\/19\/11" }, "geometry": { "type": "Point", "coordinates": [ -78.194, 38.808 ] } }
,
{ "type": "Feature", "id": 5323, "properties": { "pull_date": "2\/18\/11", "latitude": 29.653, "longitude": -82.019, "fire_name": "KRIMES", "fire_number": "FL-FLS-2011-08-0125", "area": 810.0, "report_date": "2\/18\/11" }, "geometry": { "type": "Point", "coordinates": [ -82.019, 29.653 ] } }
,
{ "type": "Feature", "id": 5324, "properties": { "pull_date": "2\/18\/11", "latitude": 36.433, "longitude": -84.2, "fire_name": "WALNUT MTN.", "fire_number": "TN-TNS-ETD0002", "area": 250.0, "report_date": "2\/18\/11" }, "geometry": { "type": "Point", "coordinates": [ -84.2, 36.433 ] } }
,
{ "type": "Feature", "id": 5325, "properties": { "pull_date": "2\/18\/11", "latitude": 32.853, "longitude": -87.338, "fire_name": "TWENTY THREE", "fire_number": "AL-ALF-110401", "area": 205.0, "report_date": "2\/18\/11" }, "geometry": { "type": "Point", "coordinates": [ -87.338, 32.853 ] } }
,
{ "type": "Feature", "id": 5326, "properties": { "pull_date": "2\/18\/11", "latitude": 37.363, "longitude": -83.179, "fire_name": "LOST MOUNTAIN #3", "fire_number": "KY-KYS-11-2001", "area": 425.0, "report_date": "2\/18\/11" }, "geometry": { "type": "Point", "coordinates": [ -83.179, 37.363 ] } }
,
{ "type": "Feature", "id": 5327, "properties": { "pull_date": "2\/18\/11", "latitude": 37.217, "longitude": -82.555, "fire_name": "SHELBY GAP", "fire_number": "KY-KYS-11-9004", "area": 180.0, "report_date": "2\/18\/11" }, "geometry": { "type": "Point", "coordinates": [ -82.555, 37.217 ] } }
,
{ "type": "Feature", "id": 5328, "properties": { "pull_date": "2\/18\/11", "latitude": 37.813, "longitude": -103.783, "fire_name": "SIERRA VISTA", "fire_number": "CO-PSF-110", "area": 2000.0, "report_date": "2\/20\/11" }, "geometry": { "type": "Point", "coordinates": [ -103.783, 37.813 ] } }
,
{ "type": "Feature", "id": 5329, "properties": { "pull_date": "2\/18\/11", "latitude": 37.059, "longitude": -91.372, "fire_name": "BUCK HART SPRING", "fire_number": "MO-MTF-", "area": 600.0, "report_date": "2\/20\/11" }, "geometry": { "type": "Point", "coordinates": [ -91.372, 37.059 ] } }
,
{ "type": "Feature", "id": 5330, "properties": { "pull_date": "2\/18\/11", "latitude": 36.678, "longitude": -91.213, "fire_name": "CONNER SPRING", "fire_number": "MO-MTF-000011", "area": 200.0, "report_date": "2\/20\/11" }, "geometry": { "type": "Point", "coordinates": [ -91.213, 36.678 ] } }
,
{ "type": "Feature", "id": 5331, "properties": { "pull_date": "2\/18\/11", "latitude": 36.955, "longitude": -91.293, "fire_name": "NICHOLS LAKE", "fire_number": "MO-MTF-00014", "area": 200.0, "report_date": "2\/20\/11" }, "geometry": { "type": "Point", "coordinates": [ -91.293, 36.955 ] } }
,
{ "type": "Feature", "id": 5332, "properties": { "pull_date": "2\/18\/11", "latitude": 36.935, "longitude": -91.304, "fire_name": "WHITE POSSOM", "fire_number": "MO-MTF-00015", "area": 100.0, "report_date": "2\/20\/11" }, "geometry": { "type": "Point", "coordinates": [ -91.304, 36.935 ] } }
,
{ "type": "Feature", "id": 5333, "properties": { "pull_date": "2\/18\/11", "latitude": 36.956, "longitude": -91.277, "fire_name": "NICHOLS LAKE 2", "fire_number": "MO-MTF-00018", "area": 100.0, "report_date": "2\/20\/11" }, "geometry": { "type": "Point", "coordinates": [ -91.277, 36.956 ] } }
,
{ "type": "Feature", "id": 5334, "properties": { "pull_date": "2\/18\/11", "latitude": 38.521, "longitude": -79.038, "fire_name": "COFFMAN", "fire_number": "VA-VAF-000026", "area": 2700.0, "report_date": "2\/20\/11" }, "geometry": { "type": "Point", "coordinates": [ -79.038, 38.521 ] } }
,
{ "type": "Feature", "id": 5335, "properties": { "pull_date": "2\/18\/11", "latitude": 37.382, "longitude": -80.2, "fire_name": "PICKLE BRANCH", "fire_number": "VA-VAF-000032", "area": 325.0, "report_date": "2\/20\/11" }, "geometry": { "type": "Point", "coordinates": [ -80.2, 37.382 ] } }
,
{ "type": "Feature", "id": 5336, "properties": { "pull_date": "2\/18\/11", "latitude": 36.322, "longitude": -78.188, "fire_name": "PARKTOWN ROAD", "fire_number": "NC-NCS-11093020", "area": 1100.0, "report_date": "2\/20\/11" }, "geometry": { "type": "Point", "coordinates": [ -78.188, 36.322 ] } }
,
{ "type": "Feature", "id": 5337, "properties": { "pull_date": "2\/18\/11", "latitude": 38.008, "longitude": -77.842, "fire_name": "LOUISA HIGH", "fire_number": "VA-VAS-11C006", "area": 1000.0, "report_date": "2\/20\/11" }, "geometry": { "type": "Point", "coordinates": [ -77.842, 38.008 ] } }
,
{ "type": "Feature", "id": 5338, "properties": { "pull_date": "2\/18\/11", "latitude": 32.31, "longitude": -102.575, "fire_name": "PARKER", "fire_number": "TX-TXS-11015", "area": 868.0, "report_date": "2\/20\/11" }, "geometry": { "type": "Point", "coordinates": [ -102.575, 32.31 ] } }
,
{ "type": "Feature", "id": 5339, "properties": { "pull_date": "2\/18\/11", "latitude": 37.754, "longitude": -76.758, "fire_name": " GLO", "fire_number": "VA-VAS-11010023", "area": 540.0, "report_date": "2\/20\/11" }, "geometry": { "type": "Point", "coordinates": [ -76.758, 37.754 ] } }
,
{ "type": "Feature", "id": 5340, "properties": { "pull_date": "2\/18\/11", "latitude": 38.504, "longitude": -78.504, "fire_name": "POWELL MTN", "fire_number": "VA-VAS-11W0001", "area": 350.0, "report_date": "2\/20\/11" }, "geometry": { "type": "Point", "coordinates": [ -78.504, 38.504 ] } }
,
{ "type": "Feature", "id": 5341, "properties": { "pull_date": "2\/18\/11", "latitude": 34.637, "longitude": -79.42, "fire_name": "STEED ROAD", "fire_number": "NC-NCS-11087023", "area": 300.0, "report_date": "2\/20\/11" }, "geometry": { "type": "Point", "coordinates": [ -79.42, 34.637 ] } }
,
{ "type": "Feature", "id": 5342, "properties": { "pull_date": "2\/18\/11", "latitude": 37.838, "longitude": -76.671, "fire_name": "JAMICA", "fire_number": "VA-VAS-11010024", "area": 500.0, "report_date": "2\/20\/11" }, "geometry": { "type": "Point", "coordinates": [ -76.671, 37.838 ] } }
,
{ "type": "Feature", "id": 5343, "properties": { "pull_date": "2\/18\/11", "latitude": 34.402, "longitude": -77.732, "fire_name": "WOLF ISLAND", "fire_number": "NC-NCS-11071017", "area": 500.0, "report_date": "2\/20\/11" }, "geometry": { "type": "Point", "coordinates": [ -77.732, 34.402 ] } }
,
{ "type": "Feature", "id": 5344, "properties": { "pull_date": "2\/18\/11", "latitude": 35.47, "longitude": -78.853, "fire_name": "GRAVE YARD", "fire_number": "NC-NCS-11043019", "area": 125.0, "report_date": "2\/20\/11" }, "geometry": { "type": "Point", "coordinates": [ -78.853, 35.47 ] } }
,
{ "type": "Feature", "id": 5345, "properties": { "pull_date": "2\/18\/11", "latitude": 34.978, "longitude": -79.144, "fire_name": "DUNDEE FIRE", "fire_number": "NC-NCS-11047024", "area": 115.0, "report_date": "2\/20\/11" }, "geometry": { "type": "Point", "coordinates": [ -79.144, 34.978 ] } }
,
{ "type": "Feature", "id": 5346, "properties": { "pull_date": "2\/18\/11", "latitude": 35.146, "longitude": -84.123, "fire_name": "HARD DAWG", "fire_number": "NC-NCF-110019", "area": 112.0, "report_date": "2\/20\/11" }, "geometry": { "type": "Point", "coordinates": [ -84.123, 35.146 ] } }
,
{ "type": "Feature", "id": 5347, "properties": { "pull_date": "2\/18\/11", "latitude": 33.101, "longitude": -111.147, "fire_name": "RIVER", "fire_number": "AZ-SAD-011014", "area": 130.0, "report_date": "2\/16\/11" }, "geometry": { "type": "Point", "coordinates": [ -111.147, 33.101 ] } }
,
{ "type": "Feature", "id": 5348, "properties": { "pull_date": "2\/18\/11", "latitude": 31.34, "longitude": -110.743, "fire_name": "DUQUESNE", "fire_number": "AZ-CNF-011011", "area": 1995.0, "report_date": "2\/20\/11" }, "geometry": { "type": "Point", "coordinates": [ -110.743, 31.34 ] } }
,
{ "type": "Feature", "id": 5349, "properties": { "pull_date": "2\/21\/11", "latitude": 38.521, "longitude": -79.038, "fire_name": "COFFMAN", "fire_number": "VA-VAF-000026", "area": 2695.0, "report_date": "2\/21\/11" }, "geometry": { "type": "Point", "coordinates": [ -79.038, 38.521 ] } }
,
{ "type": "Feature", "id": 5350, "properties": { "pull_date": "2\/21\/11", "latitude": 38.808, "longitude": -78.194, "fire_name": "SMITH RUN", "fire_number": "VA-SHP-010006", "area": 1950.0, "report_date": "2\/21\/11" }, "geometry": { "type": "Point", "coordinates": [ -78.194, 38.808 ] } }
,
{ "type": "Feature", "id": 5351, "properties": { "pull_date": "2\/21\/11", "latitude": 37.382, "longitude": -80.2, "fire_name": "PICKLE BRANCH", "fire_number": "VA-VAF-000032", "area": 640.0, "report_date": "2\/21\/11" }, "geometry": { "type": "Point", "coordinates": [ -80.2, 37.382 ] } }
,
{ "type": "Feature", "id": 5352, "properties": { "pull_date": "2\/21\/11", "latitude": 36.322, "longitude": -78.188, "fire_name": "PARKTOWN ROAD", "fire_number": "NC-NCS-11093020", "area": 2030.0, "report_date": "2\/21\/11" }, "geometry": { "type": "Point", "coordinates": [ -78.188, 36.322 ] } }
,
{ "type": "Feature", "id": 5353, "properties": { "pull_date": "2\/21\/11", "latitude": 32.31, "longitude": -102.575, "fire_name": "PARKER", "fire_number": "TX-TXS-11015", "area": 868.0, "report_date": "2\/21\/11" }, "geometry": { "type": "Point", "coordinates": [ -102.575, 32.31 ] } }
,
{ "type": "Feature", "id": 5354, "properties": { "pull_date": "2\/21\/11", "latitude": 38.504, "longitude": -78.504, "fire_name": "POWELL MTN", "fire_number": "VA-VAS-11W0001", "area": 550.0, "report_date": "2\/21\/11" }, "geometry": { "type": "Point", "coordinates": [ -78.504, 38.504 ] } }
,
{ "type": "Feature", "id": 5355, "properties": { "pull_date": "2\/21\/11", "latitude": 34.637, "longitude": -79.42, "fire_name": "STEED ROAD", "fire_number": "NC-NCS-11087023", "area": 300.0, "report_date": "2\/21\/11" }, "geometry": { "type": "Point", "coordinates": [ -79.42, 34.637 ] } }
,
{ "type": "Feature", "id": 5356, "properties": { "pull_date": "2\/21\/11", "latitude": 35.753, "longitude": -101.963, "fire_name": "MOORE COUNTY", "fire_number": "TX-TXS-11014", "area": 7943.0, "report_date": "2\/20\/11" }, "geometry": { "type": "Point", "coordinates": [ -101.963, 35.753 ] } }
,
{ "type": "Feature", "id": 5357, "properties": { "pull_date": "2\/21\/11", "latitude": 36.327, "longitude": -100.275, "fire_name": "LIPSCOMB COUNTY COMPLEX", "fire_number": "TX-TXS-11012", "area": 15908.0, "report_date": "2\/19\/11" }, "geometry": { "type": "Point", "coordinates": [ -100.275, 36.327 ] } }
,
{ "type": "Feature", "id": 5358, "properties": { "pull_date": "2\/21\/11", "latitude": 35.394, "longitude": -82.259, "fire_name": "JUDES GAP", "fire_number": "NC-NCS-11-075-005", "area": 1477.0, "report_date": "2\/21\/11" }, "geometry": { "type": "Point", "coordinates": [ -82.259, 35.394 ] } }
,
{ "type": "Feature", "id": 5359, "properties": { "pull_date": "2\/21\/11", "latitude": 37.754, "longitude": -76.758, "fire_name": " GLO", "fire_number": "VA-VAS-11010023", "area": 540.0, "report_date": "2\/21\/11" }, "geometry": { "type": "Point", "coordinates": [ -76.758, 37.754 ] } }
,
{ "type": "Feature", "id": 5360, "properties": { "pull_date": "2\/21\/11", "latitude": 29.653, "longitude": -82.019, "fire_name": "KRIMES", "fire_number": "FL-FLS-2011-08-0125", "area": 1200.0, "report_date": "2\/19\/11" }, "geometry": { "type": "Point", "coordinates": [ -82.019, 29.653 ] } }
,
{ "type": "Feature", "id": 5361, "properties": { "pull_date": "2\/21\/11", "latitude": 36.549, "longitude": -80.868, "fire_name": "LUMBER PLANT", "fire_number": "NC-NCS-11086009", "area": 737.0, "report_date": "2\/20\/11" }, "geometry": { "type": "Point", "coordinates": [ -80.868, 36.549 ] } }
,
{ "type": "Feature", "id": 5362, "properties": { "pull_date": "2\/21\/11", "latitude": 37.838, "longitude": -76.671, "fire_name": "JAMICA", "fire_number": "VA-VAS-11010024", "area": 500.0, "report_date": "2\/21\/11" }, "geometry": { "type": "Point", "coordinates": [ -76.671, 37.838 ] } }
,
{ "type": "Feature", "id": 5363, "properties": { "pull_date": "2\/21\/11", "latitude": 34.401, "longitude": -77.725, "fire_name": "WOLF ISLAND", "fire_number": "NC-NCS-11071017", "area": 678.0, "report_date": "2\/21\/11" }, "geometry": { "type": "Point", "coordinates": [ -77.725, 34.401 ] } }
,
{ "type": "Feature", "id": 5364, "properties": { "pull_date": "2\/21\/11", "latitude": 37.363, "longitude": -83.179, "fire_name": "LOST MOUNTAIN #3", "fire_number": "KY-KYS-11-2001", "area": 425.0, "report_date": "2\/18\/11" }, "geometry": { "type": "Point", "coordinates": [ -83.179, 37.363 ] } }
,
{ "type": "Feature", "id": 5365, "properties": { "pull_date": "2\/21\/11", "latitude": 37.728, "longitude": -82.149, "fire_name": "ROWE", "fire_number": "KY-KYS-11-9005", "area": 307.0, "report_date": "2\/19\/11" }, "geometry": { "type": "Point", "coordinates": [ -82.149, 37.728 ] } }
,
{ "type": "Feature", "id": 5366, "properties": { "pull_date": "2\/21\/11", "latitude": 36.433, "longitude": -84.2, "fire_name": "WALNUT MTN.", "fire_number": "TN-TNS-ETD0002", "area": 250.0, "report_date": "2\/18\/11" }, "geometry": { "type": "Point", "coordinates": [ -84.2, 36.433 ] } }
,
{ "type": "Feature", "id": 5367, "properties": { "pull_date": "2\/21\/11", "latitude": 32.853, "longitude": -87.338, "fire_name": "TWENTY THREE", "fire_number": "AL-ALF-110401", "area": 205.0, "report_date": "2\/18\/11" }, "geometry": { "type": "Point", "coordinates": [ -87.338, 32.853 ] } }
,
{ "type": "Feature", "id": 5368, "properties": { "pull_date": "2\/21\/11", "latitude": 37.217, "longitude": -82.555, "fire_name": "SHELBY GAP", "fire_number": "KY-KYS-11-9004", "area": 180.0, "report_date": "2\/18\/11" }, "geometry": { "type": "Point", "coordinates": [ -82.555, 37.217 ] } }
,
{ "type": "Feature", "id": 5369, "properties": { "pull_date": "2\/21\/11", "latitude": 37.524, "longitude": -82.675, "fire_name": "BIG BRANCH OF LITTLE MUD", "fire_number": "KY-KYS-119006", "area": 180.0, "report_date": "2\/19\/11" }, "geometry": { "type": "Point", "coordinates": [ -82.675, 37.524 ] } }
,
{ "type": "Feature", "id": 5370, "properties": { "pull_date": "2\/21\/11", "latitude": 37.503, "longitude": -82.204, "fire_name": "CALLOWAY BRANCH", "fire_number": "KY-KYS-11-9007", "area": 165.0, "report_date": "2\/19\/11" }, "geometry": { "type": "Point", "coordinates": [ -82.204, 37.503 ] } }
,
{ "type": "Feature", "id": 5371, "properties": { "pull_date": "2\/21\/11", "latitude": 35.47, "longitude": -78.853, "fire_name": "GRAVE YARD", "fire_number": "NC-NCS-11043019", "area": 125.0, "report_date": "2\/20\/11" }, "geometry": { "type": "Point", "coordinates": [ -78.853, 35.47 ] } }
,
{ "type": "Feature", "id": 5372, "properties": { "pull_date": "2\/21\/11", "latitude": 34.978, "longitude": -79.144, "fire_name": "DUNDEE FIRE", "fire_number": "NC-NCS-11047024", "area": 115.0, "report_date": "2\/20\/11" }, "geometry": { "type": "Point", "coordinates": [ -79.144, 34.978 ] } }
,
{ "type": "Feature", "id": 5373, "properties": { "pull_date": "2\/21\/11", "latitude": 35.146, "longitude": -84.123, "fire_name": "HARD DAWG", "fire_number": "NC-NCF-110019", "area": 125.0, "report_date": "2\/22\/11" }, "geometry": { "type": "Point", "coordinates": [ -84.123, 35.146 ] } }
,
{ "type": "Feature", "id": 5374, "properties": { "pull_date": "2\/21\/11", "latitude": 38.008, "longitude": -77.842, "fire_name": "LOUISA HIGH", "fire_number": "VA-VAS-11C006", "area": 1000.0, "report_date": "2\/20\/11" }, "geometry": { "type": "Point", "coordinates": [ -77.842, 38.008 ] } }
,
{ "type": "Feature", "id": 5375, "properties": { "pull_date": "2\/21\/11", "latitude": 36.678, "longitude": -91.213, "fire_name": "CONNER SPRING", "fire_number": "MO-MTF-000011", "area": 200.0, "report_date": "2\/20\/11" }, "geometry": { "type": "Point", "coordinates": [ -91.213, 36.678 ] } }
,
{ "type": "Feature", "id": 5376, "properties": { "pull_date": "2\/21\/11", "latitude": 36.935, "longitude": -91.304, "fire_name": "WHITE POSSOM", "fire_number": "MO-MTF-00015", "area": 100.0, "report_date": "2\/20\/11" }, "geometry": { "type": "Point", "coordinates": [ -91.304, 36.935 ] } }
,
{ "type": "Feature", "id": 5377, "properties": { "pull_date": "2\/21\/11", "latitude": 36.781, "longitude": -92.753, "fire_name": "WATERHOLE", "fire_number": "MO-MTF-000010", "area": 125.0, "report_date": "2\/19\/11" }, "geometry": { "type": "Point", "coordinates": [ -92.753, 36.781 ] } }
,
{ "type": "Feature", "id": 5378, "properties": { "pull_date": "2\/21\/11", "latitude": 36.955, "longitude": -91.293, "fire_name": "NICHOLS LAKE", "fire_number": "MO-MTF-00014", "area": 200.0, "report_date": "2\/20\/11" }, "geometry": { "type": "Point", "coordinates": [ -91.293, 36.955 ] } }
,
{ "type": "Feature", "id": 5379, "properties": { "pull_date": "2\/21\/11", "latitude": 36.956, "longitude": -91.277, "fire_name": "NICHOLS LAKE 2", "fire_number": "MO-MTF-00018", "area": 100.0, "report_date": "2\/20\/11" }, "geometry": { "type": "Point", "coordinates": [ -91.277, 36.956 ] } }
,
{ "type": "Feature", "id": 5380, "properties": { "pull_date": "2\/21\/11", "latitude": 37.059, "longitude": -91.372, "fire_name": "BUCK HART SPRING", "fire_number": "MO-MTF-", "area": 600.0, "report_date": "2\/20\/11" }, "geometry": { "type": "Point", "coordinates": [ -91.372, 37.059 ] } }
,
{ "type": "Feature", "id": 5381, "properties": { "pull_date": "2\/21\/11", "latitude": 37.813, "longitude": -103.783, "fire_name": "SIERRA VISTA", "fire_number": "CO-PSF-110", "area": 2000.0, "report_date": "2\/20\/11" }, "geometry": { "type": "Point", "coordinates": [ -103.783, 37.813 ] } }
,
{ "type": "Feature", "id": 5382, "properties": { "pull_date": "2\/21\/11", "latitude": 33.101, "longitude": -111.147, "fire_name": "RIVER", "fire_number": "AZ-SAD-011014", "area": 130.0, "report_date": "2\/16\/11" }, "geometry": { "type": "Point", "coordinates": [ -111.147, 33.101 ] } }
,
{ "type": "Feature", "id": 5383, "properties": { "pull_date": "2\/21\/11", "latitude": 31.34, "longitude": -110.743, "fire_name": "DUQUESNE", "fire_number": "AZ-CNF-011011", "area": 1995.0, "report_date": "2\/20\/11" }, "geometry": { "type": "Point", "coordinates": [ -110.743, 31.34 ] } }
,
{ "type": "Feature", "id": 5384, "properties": { "pull_date": "2\/22\/11", "latitude": 38.808, "longitude": -78.194, "fire_name": "SMITH RUN FIRE", "fire_number": "VA-SHP-010006", "area": 350.0, "report_date": "2\/19\/11" }, "geometry": { "type": "Point", "coordinates": [ -78.194, 38.808 ] } }
,
{ "type": "Feature", "id": 5385, "properties": { "pull_date": "2\/22\/11", "latitude": 38.521, "longitude": -79.038, "fire_name": "COFFMAN", "fire_number": "VA-VAF-000026", "area": 2700.0, "report_date": "2\/20\/11" }, "geometry": { "type": "Point", "coordinates": [ -79.038, 38.521 ] } }
,
{ "type": "Feature", "id": 5386, "properties": { "pull_date": "2\/22\/11", "latitude": 37.382, "longitude": -80.2, "fire_name": "PICKLE BRANCH", "fire_number": "VA-VAF-000032", "area": 325.0, "report_date": "2\/20\/11" }, "geometry": { "type": "Point", "coordinates": [ -80.2, 37.382 ] } }
,
{ "type": "Feature", "id": 5387, "properties": { "pull_date": "2\/22\/11", "latitude": 36.322, "longitude": -78.188, "fire_name": "PARKTOWN ROAD", "fire_number": "NC-NCS-11093020", "area": 1100.0, "report_date": "2\/20\/11" }, "geometry": { "type": "Point", "coordinates": [ -78.188, 36.322 ] } }
,
{ "type": "Feature", "id": 5388, "properties": { "pull_date": "2\/22\/11", "latitude": 38.008, "longitude": -77.842, "fire_name": "LOUISA HIGH", "fire_number": "VA-VAS-11C006", "area": 1000.0, "report_date": "2\/20\/11" }, "geometry": { "type": "Point", "coordinates": [ -77.842, 38.008 ] } }
,
{ "type": "Feature", "id": 5389, "properties": { "pull_date": "2\/22\/11", "latitude": 32.31, "longitude": -102.575, "fire_name": "PARKER", "fire_number": "TX-TXS-11015", "area": 868.0, "report_date": "2\/20\/11" }, "geometry": { "type": "Point", "coordinates": [ -102.575, 32.31 ] } }
,
{ "type": "Feature", "id": 5390, "properties": { "pull_date": "2\/22\/11", "latitude": 37.754, "longitude": -76.758, "fire_name": "GLO", "fire_number": "VA-VAS-11010023", "area": 540.0, "report_date": "2\/20\/11" }, "geometry": { "type": "Point", "coordinates": [ -76.758, 37.754 ] } }
,
{ "type": "Feature", "id": 5391, "properties": { "pull_date": "2\/22\/11", "latitude": 38.504, "longitude": -78.504, "fire_name": "POWELL MTN", "fire_number": "VA-VAS-11W0001", "area": 350.0, "report_date": "2\/20\/11" }, "geometry": { "type": "Point", "coordinates": [ -78.504, 38.504 ] } }
,
{ "type": "Feature", "id": 5392, "properties": { "pull_date": "2\/22\/11", "latitude": 34.637, "longitude": -79.42, "fire_name": "STEED ROAD", "fire_number": "NC-NCS-11087023", "area": 300.0, "report_date": "2\/20\/11" }, "geometry": { "type": "Point", "coordinates": [ -79.42, 34.637 ] } }
,
{ "type": "Feature", "id": 5393, "properties": { "pull_date": "2\/22\/11", "latitude": 38.008, "longitude": -77.842, "fire_name": "CHOPPING ROAD", "fire_number": "VA-VAS-11C006", "area": 1300.0, "report_date": "2\/21\/11" }, "geometry": { "type": "Point", "coordinates": [ -77.842, 38.008 ] } }
,
{ "type": "Feature", "id": 5394, "properties": { "pull_date": "2\/22\/11", "latitude": 38.804, "longitude": -77.9, "fire_name": "THOMPSON MILL RD", "fire_number": "VA-VAS-110300111", "area": 200.0, "report_date": "2\/21\/11" }, "geometry": { "type": "Point", "coordinates": [ -77.9, 38.804 ] } }
,
{ "type": "Feature", "id": 5395, "properties": { "pull_date": "2\/22\/11", "latitude": 37.786, "longitude": -78.042, "fire_name": "POWERLINE", "fire_number": "VA-VAS-110300108", "area": 264.0, "report_date": "2\/21\/11" }, "geometry": { "type": "Point", "coordinates": [ -78.042, 37.786 ] } }
,
{ "type": "Feature", "id": 5396, "properties": { "pull_date": "2\/22\/11", "latitude": 38.804, "longitude": -78.722, "fire_name": "CROOKED RUN", "fire_number": "VA-VA-110300094", "area": 300.0, "report_date": "2\/21\/11" }, "geometry": { "type": "Point", "coordinates": [ -78.722, 38.804 ] } }
,
{ "type": "Feature", "id": 5397, "properties": { "pull_date": "2\/22\/11", "latitude": 38.042, "longitude": -78.583, "fire_name": "ROSEMONT", "fire_number": "VA-VAS-110300113", "area": 900.0, "report_date": "2\/21\/11" }, "geometry": { "type": "Point", "coordinates": [ -78.583, 38.042 ] } }
,
{ "type": "Feature", "id": 5398, "properties": { "pull_date": "2\/22\/11", "latitude": 34.871, "longitude": -78.778, "fire_name": "VALENTINE", "fire_number": "NC-NCS-11026025", "area": 800.0, "report_date": "2\/21\/11" }, "geometry": { "type": "Point", "coordinates": [ -78.778, 34.871 ] } }
,
{ "type": "Feature", "id": 5399, "properties": { "pull_date": "2\/22\/11", "latitude": 28.195, "longitude": -81.957, "fire_name": "CREEKWOOD", "fire_number": "FL-FLS-2011-14-0146", "area": 350.0, "report_date": "2\/21\/11" }, "geometry": { "type": "Point", "coordinates": [ -81.957, 28.195 ] } }
,
{ "type": "Feature", "id": 5400, "properties": { "pull_date": "2\/22\/11", "latitude": 28.676, "longitude": -80.989, "fire_name": "SHOULDER KNOT", "fire_number": "FL-FLS-2011-12-0140", "area": 410.0, "report_date": "2\/21\/11" }, "geometry": { "type": "Point", "coordinates": [ -80.989, 28.676 ] } }
,
{ "type": "Feature", "id": 5401, "properties": { "pull_date": "2\/22\/11", "latitude": 37.059, "longitude": -91.372, "fire_name": "BUCK HART SPRING", "fire_number": "MO-MTF-", "area": 600.0, "report_date": "2\/20\/11" }, "geometry": { "type": "Point", "coordinates": [ -91.372, 37.059 ] } }
,
{ "type": "Feature", "id": 5402, "properties": { "pull_date": "2\/22\/11", "latitude": 36.678, "longitude": -91.213, "fire_name": "CONNER SPRING", "fire_number": "MO-MTF-000011", "area": 200.0, "report_date": "2\/20\/11" }, "geometry": { "type": "Point", "coordinates": [ -91.213, 36.678 ] } }
,
{ "type": "Feature", "id": 5403, "properties": { "pull_date": "2\/22\/11", "latitude": 36.955, "longitude": -91.293, "fire_name": "NICHOLS LAKE", "fire_number": "MO-MTF-00014", "area": 200.0, "report_date": "2\/20\/11" }, "geometry": { "type": "Point", "coordinates": [ -91.293, 36.955 ] } }
,
{ "type": "Feature", "id": 5404, "properties": { "pull_date": "2\/22\/11", "latitude": 36.935, "longitude": -91.304, "fire_name": "WHITE POSSOM", "fire_number": "MO-MTF-00015", "area": 100.0, "report_date": "2\/20\/11" }, "geometry": { "type": "Point", "coordinates": [ -91.304, 36.935 ] } }
,
{ "type": "Feature", "id": 5405, "properties": { "pull_date": "2\/22\/11", "latitude": 36.956, "longitude": -91.277, "fire_name": "NICHOLS LAKE 2", "fire_number": "MO-MTF-00018", "area": 100.0, "report_date": "2\/20\/11" }, "geometry": { "type": "Point", "coordinates": [ -91.277, 36.956 ] } }
,
{ "type": "Feature", "id": 5406, "properties": { "pull_date": "2\/22\/11", "latitude": 36.781, "longitude": -92.753, "fire_name": "WATERHOLE", "fire_number": "MO-MTF-000010", "area": 125.0, "report_date": "2\/19\/11" }, "geometry": { "type": "Point", "coordinates": [ -92.753, 36.781 ] } }
,
{ "type": "Feature", "id": 5407, "properties": { "pull_date": "2\/23\/11", "latitude": 38.521, "longitude": -79.038, "fire_name": "VALLEY", "fire_number": "VA-VIC-110002", "area": 6041.0, "report_date": "2\/22\/11" }, "geometry": { "type": "Point", "coordinates": [ -79.038, 38.521 ] } }
,
{ "type": "Feature", "id": 5408, "properties": { "pull_date": "2\/23\/11", "latitude": 38.008, "longitude": -77.842, "fire_name": "CHOPPING ROAD", "fire_number": "VA-VAS-11C006", "area": 1300.0, "report_date": "2\/21\/11" }, "geometry": { "type": "Point", "coordinates": [ -77.842, 38.008 ] } }
,
{ "type": "Feature", "id": 5409, "properties": { "pull_date": "2\/23\/11", "latitude": 34.395, "longitude": -87.522, "fire_name": "FORD", "fire_number": "AL-ALF-110103", "area": 1011.0, "report_date": "2\/21\/11" }, "geometry": { "type": "Point", "coordinates": [ -87.522, 34.395 ] } }
,
{ "type": "Feature", "id": 5410, "properties": { "pull_date": "2\/23\/11", "latitude": 33.117, "longitude": -98.35, "fire_name": "ROCK CREEK", "fire_number": "TX-TXS-11016", "area": 1000.0, "report_date": "2\/22\/11" }, "geometry": { "type": "Point", "coordinates": [ -98.35, 33.117 ] } }
,
{ "type": "Feature", "id": 5411, "properties": { "pull_date": "2\/23\/11", "latitude": 34.871, "longitude": -78.778, "fire_name": "VALENTINE", "fire_number": "NC-NCS-11026025", "area": 800.0, "report_date": "2\/22\/11" }, "geometry": { "type": "Point", "coordinates": [ -78.778, 34.871 ] } }
,
{ "type": "Feature", "id": 5412, "properties": { "pull_date": "2\/23\/11", "latitude": 34.637, "longitude": -78.42, "fire_name": "HIGHWAY 83", "fire_number": "NC-NCS-11078026", "area": 436.0, "report_date": "2\/22\/11" }, "geometry": { "type": "Point", "coordinates": [ -78.42, 34.637 ] } }
,
{ "type": "Feature", "id": 5413, "properties": { "pull_date": "2\/23\/11", "latitude": 28.195, "longitude": -81.957, "fire_name": "CREEKWOOD", "fire_number": "FL-FLS-2011-14-0146", "area": 350.0, "report_date": "2\/22\/11" }, "geometry": { "type": "Point", "coordinates": [ -81.957, 28.195 ] } }
,
{ "type": "Feature", "id": 5414, "properties": { "pull_date": "2\/23\/11", "latitude": 34.299, "longitude": -87.196, "fire_name": "GREEN TOWER", "fire_number": "AL-ALF-110104", "area": 200.0, "report_date": "2\/21\/11" }, "geometry": { "type": "Point", "coordinates": [ -87.196, 34.299 ] } }
,
{ "type": "Feature", "id": 5415, "properties": { "pull_date": "2\/23\/11", "latitude": 34.853, "longitude": -85.523, "fire_name": "HARRISBURG GULF", "fire_number": "GA-GAS-011002", "area": 180.0, "report_date": "2\/22\/11" }, "geometry": { "type": "Point", "coordinates": [ -85.523, 34.853 ] } }
,
{ "type": "Feature", "id": 5416, "properties": { "pull_date": "2\/23\/11", "latitude": 28.676, "longitude": -80.989, "fire_name": "SHOULDER KNOT", "fire_number": "FL-FLS-2011-12-0140", "area": 700.0, "report_date": "2\/22\/11" }, "geometry": { "type": "Point", "coordinates": [ -80.989, 28.676 ] } }
,
{ "type": "Feature", "id": 5417, "properties": { "pull_date": "2\/23\/11", "latitude": 36.602, "longitude": -84.134, "fire_name": "JONES CREEK", "fire_number": "GA-CHF-110014", "area": 440.0, "report_date": "2\/22\/11" }, "geometry": { "type": "Point", "coordinates": [ -84.134, 36.602 ] } }
,
{ "type": "Feature", "id": 5418, "properties": { "pull_date": "2\/23\/11", "latitude": 37.059, "longitude": -91.372, "fire_name": "BUCK HART SPRING", "fire_number": "MO-MTF-", "area": 600.0, "report_date": "2\/20\/11" }, "geometry": { "type": "Point", "coordinates": [ -91.372, 37.059 ] } }
,
{ "type": "Feature", "id": 5419, "properties": { "pull_date": "2\/23\/11", "latitude": 36.955, "longitude": -91.293, "fire_name": "NICHOLS LAKE", "fire_number": "MO-MTF-00014", "area": 200.0, "report_date": "2\/20\/11" }, "geometry": { "type": "Point", "coordinates": [ -91.293, 36.955 ] } }
,
{ "type": "Feature", "id": 5420, "properties": { "pull_date": "2\/23\/11", "latitude": 36.678, "longitude": -91.213, "fire_name": "CONNER SPRING", "fire_number": "MO-MTF-000011", "area": 200.0, "report_date": "2\/20\/11" }, "geometry": { "type": "Point", "coordinates": [ -91.213, 36.678 ] } }
,
{ "type": "Feature", "id": 5421, "properties": { "pull_date": "2\/23\/11", "latitude": 36.935, "longitude": -91.304, "fire_name": "WHITE POSSOM", "fire_number": "MO-MTF-00015", "area": 100.0, "report_date": "2\/20\/11" }, "geometry": { "type": "Point", "coordinates": [ -91.304, 36.935 ] } }
,
{ "type": "Feature", "id": 5422, "properties": { "pull_date": "2\/23\/11", "latitude": 36.956, "longitude": -91.277, "fire_name": "NICHOLS LAKE 2", "fire_number": "MO-MTF-00018", "area": 300.0, "report_date": "2\/22\/11" }, "geometry": { "type": "Point", "coordinates": [ -91.277, 36.956 ] } }
,
{ "type": "Feature", "id": 5423, "properties": { "pull_date": "2\/23\/11", "latitude": 36.781, "longitude": -92.753, "fire_name": "WATERHOLE", "fire_number": "MO-MTF-000010", "area": 410.5, "report_date": "2\/22\/11" }, "geometry": { "type": "Point", "coordinates": [ -92.753, 36.781 ] } }
,
{ "type": "Feature", "id": 5424, "properties": { "pull_date": "2\/23\/11", "latitude": 38.008, "longitude": -77.842, "fire_name": "LOUISA HIGH", "fire_number": "VA-VAS-11C006", "area": 1000.0, "report_date": "2\/20\/11" }, "geometry": { "type": "Point", "coordinates": [ -77.842, 38.008 ] } }
,
{ "type": "Feature", "id": 5425, "properties": { "pull_date": "2\/24\/11", "latitude": 38.521, "longitude": -79.038, "fire_name": "VALLEY", "fire_number": "VA-VIC-110002", "area": 6041.0, "report_date": "2\/23\/11" }, "geometry": { "type": "Point", "coordinates": [ -79.038, 38.521 ] } }
,
{ "type": "Feature", "id": 5426, "properties": { "pull_date": "2\/24\/11", "latitude": 34.395, "longitude": -87.522, "fire_name": "FORD", "fire_number": "AL-ALF-110103", "area": 1014.0, "report_date": "2\/23\/11" }, "geometry": { "type": "Point", "coordinates": [ -87.522, 34.395 ] } }
,
{ "type": "Feature", "id": 5427, "properties": { "pull_date": "2\/24\/11", "latitude": 34.504, "longitude": -96.014, "fire_name": "BILLY BRYANT", "fire_number": "OK-SEU-11-10046", "area": 560.0, "report_date": "2\/23\/11" }, "geometry": { "type": "Point", "coordinates": [ -96.014, 34.504 ] } }
,
{ "type": "Feature", "id": 5428, "properties": { "pull_date": "2\/24\/11", "latitude": 34.299, "longitude": -87.196, "fire_name": "GREEN TOWER", "fire_number": "AL-ALF-110104", "area": 479.0, "report_date": "2\/23\/11" }, "geometry": { "type": "Point", "coordinates": [ -87.196, 34.299 ] } }
,
{ "type": "Feature", "id": 5429, "properties": { "pull_date": "2\/24\/11", "latitude": 34.732, "longitude": -95.384, "fire_name": "ACES AND EIGHTS", "fire_number": "OK-ECU-11-20066", "area": 400.0, "report_date": "2\/23\/11" }, "geometry": { "type": "Point", "coordinates": [ -95.384, 34.732 ] } }
,
{ "type": "Feature", "id": 5430, "properties": { "pull_date": "2\/24\/11", "latitude": 28.195, "longitude": -81.957, "fire_name": "CREEKWOOD", "fire_number": "FL-FLS-2011-14-0146", "area": 350.0, "report_date": "2\/23\/11" }, "geometry": { "type": "Point", "coordinates": [ -81.957, 28.195 ] } }
,
{ "type": "Feature", "id": 5431, "properties": { "pull_date": "2\/24\/11", "latitude": 38.008, "longitude": -77.842, "fire_name": "CHOPPING ROAD", "fire_number": "VA-VAS-11C006", "area": 1300.0, "report_date": "2\/21\/11" }, "geometry": { "type": "Point", "coordinates": [ -77.842, 38.008 ] } }
,
{ "type": "Feature", "id": 5432, "properties": { "pull_date": "2\/24\/11", "latitude": 33.117, "longitude": -98.35, "fire_name": "ROCK CREEK", "fire_number": "TX-TXS-11016", "area": 1000.0, "report_date": "2\/23\/11" }, "geometry": { "type": "Point", "coordinates": [ -98.35, 33.117 ] } }
,
{ "type": "Feature", "id": 5433, "properties": { "pull_date": "2\/24\/11", "latitude": 34.871, "longitude": -78.778, "fire_name": "VALENTINE", "fire_number": "NC-NCS-11026025", "area": 800.0, "report_date": "2\/23\/11" }, "geometry": { "type": "Point", "coordinates": [ -78.778, 34.871 ] } }
,
{ "type": "Feature", "id": 5434, "properties": { "pull_date": "2\/24\/11", "latitude": 33.904, "longitude": -85.545, "fire_name": "FLEET", "fire_number": "AL-ALF-110502", "area": 664.0, "report_date": "2\/23\/11" }, "geometry": { "type": "Point", "coordinates": [ -85.545, 33.904 ] } }
,
{ "type": "Feature", "id": 5435, "properties": { "pull_date": "2\/24\/11", "latitude": 34.637, "longitude": -78.42, "fire_name": "HIGHWAY 83", "fire_number": "NC-NCS-11078026", "area": 418.0, "report_date": "2\/23\/11" }, "geometry": { "type": "Point", "coordinates": [ -78.42, 34.637 ] } }
,
{ "type": "Feature", "id": 5436, "properties": { "pull_date": "2\/24\/11", "latitude": 31.292, "longitude": -91.667, "fire_name": "LOST FIRE", "fire_number": "MS-MNF-040001", "area": 408.0, "report_date": "2\/23\/11" }, "geometry": { "type": "Point", "coordinates": [ -91.667, 31.292 ] } }
,
{ "type": "Feature", "id": 5437, "properties": { "pull_date": "2\/24\/11", "latitude": 36.197, "longitude": -84.247, "fire_name": "STONEY FORK FIRE", "fire_number": "TN-TNS-ETD0004", "area": 250.0, "report_date": "2\/23\/11" }, "geometry": { "type": "Point", "coordinates": [ -84.247, 36.197 ] } }
,
{ "type": "Feature", "id": 5438, "properties": { "pull_date": "2\/24\/11", "latitude": 33.911, "longitude": -85.388, "fire_name": "TREAT MTN", "fire_number": "GA-GAS-011004", "area": 200.0, "report_date": "2\/23\/11" }, "geometry": { "type": "Point", "coordinates": [ -85.388, 33.911 ] } }
,
{ "type": "Feature", "id": 5439, "properties": { "pull_date": "2\/24\/11", "latitude": 34.017, "longitude": -85.395, "fire_name": "PRIOR STATION ", "fire_number": "GA-GAS-011003", "area": 189.0, "report_date": "2\/23\/11" }, "geometry": { "type": "Point", "coordinates": [ -85.395, 34.017 ] } }
,
{ "type": "Feature", "id": 5440, "properties": { "pull_date": "2\/24\/11", "latitude": 34.853, "longitude": -85.523, "fire_name": "HARRISBURG GULF", "fire_number": "GA-GAS-011002", "area": 180.0, "report_date": "2\/23\/11" }, "geometry": { "type": "Point", "coordinates": [ -85.523, 34.853 ] } }
,
{ "type": "Feature", "id": 5441, "properties": { "pull_date": "2\/24\/11", "latitude": 37.059, "longitude": -91.372, "fire_name": "BUCK HART", "fire_number": "MO-MTF-", "area": 624.0, "report_date": "2\/23\/11" }, "geometry": { "type": "Point", "coordinates": [ -91.372, 37.059 ] } }
,
{ "type": "Feature", "id": 5442, "properties": { "pull_date": "2\/24\/11", "latitude": 36.955, "longitude": -91.293, "fire_name": "NICHOLS LAKE", "fire_number": "MO-MTF-00014", "area": 615.0, "report_date": "2\/23\/11" }, "geometry": { "type": "Point", "coordinates": [ -91.293, 36.955 ] } }
,
{ "type": "Feature", "id": 5443, "properties": { "pull_date": "2\/24\/11", "latitude": 36.678, "longitude": -91.213, "fire_name": "CONNER SPRING", "fire_number": "MO-MTF-000011", "area": 587.0, "report_date": "2\/23\/11" }, "geometry": { "type": "Point", "coordinates": [ -91.213, 36.678 ] } }
,
{ "type": "Feature", "id": 5444, "properties": { "pull_date": "2\/24\/11", "latitude": 36.935, "longitude": -91.304, "fire_name": "WHITE POSSOM", "fire_number": "MO-MTF-00015", "area": 147.0, "report_date": "2\/23\/11" }, "geometry": { "type": "Point", "coordinates": [ -91.304, 36.935 ] } }
,
{ "type": "Feature", "id": 5445, "properties": { "pull_date": "2\/24\/11", "latitude": 34.225, "longitude": -109.481, "fire_name": "BIG HOLLOW", "fire_number": "AZ-A2S-110119", "area": 1300.0, "report_date": "2\/23\/11" }, "geometry": { "type": "Point", "coordinates": [ -109.481, 34.225 ] } }
,
{ "type": "Feature", "id": 5446, "properties": { "pull_date": "2\/25\/11", "latitude": 35.75, "longitude": -102.402, "fire_name": "HWY 2357 COMPLEX", "fire_number": "TX-TXS-11021", "area": 2600.0, "report_date": "2\/24\/11" }, "geometry": { "type": "Point", "coordinates": [ -102.402, 35.75 ] } }
,
{ "type": "Feature", "id": 5447, "properties": { "pull_date": "2\/25\/11", "latitude": 30.659, "longitude": -99.265, "fire_name": "JAMES RIVER ROAD", "fire_number": "TX-TXS-11017", "area": 2000.0, "report_date": "2\/24\/11" }, "geometry": { "type": "Point", "coordinates": [ -99.265, 30.659 ] } }
,
{ "type": "Feature", "id": 5448, "properties": { "pull_date": "2\/25\/11", "latitude": 38.808, "longitude": -78.194, "fire_name": "SMITH RUN FIRE", "fire_number": "VA-SHP-010006", "area": 1897.0, "report_date": "2\/24\/11" }, "geometry": { "type": "Point", "coordinates": [ -78.194, 38.808 ] } }
,
{ "type": "Feature", "id": 5449, "properties": { "pull_date": "2\/25\/11", "latitude": 34.034, "longitude": -85.691, "fire_name": "MT WEISNER 2011", "fire_number": "AL-ALS-20110222018", "area": 1500.0, "report_date": "2\/24\/11" }, "geometry": { "type": "Point", "coordinates": [ -85.691, 34.034 ] } }
,
{ "type": "Feature", "id": 5450, "properties": { "pull_date": "2\/25\/11", "latitude": 32.091, "longitude": -100.256, "fire_name": "DIAMOND PLATE", "fire_number": "TX-TXS-11019", "area": 1300.0, "report_date": "2\/24\/11" }, "geometry": { "type": "Point", "coordinates": [ -100.256, 32.091 ] } }
,
{ "type": "Feature", "id": 5451, "properties": { "pull_date": "2\/25\/11", "latitude": 34.395, "longitude": -87.522, "fire_name": "FORD", "fire_number": "AL-ALF-110103", "area": 1014.0, "report_date": "2\/24\/11" }, "geometry": { "type": "Point", "coordinates": [ -87.522, 34.395 ] } }
,
{ "type": "Feature", "id": 5452, "properties": { "pull_date": "2\/25\/11", "latitude": 32.469, "longitude": -99.063, "fire_name": "CISCO", "fire_number": "TX-TXS-11022", "area": 1000.0, "report_date": "2\/24\/11" }, "geometry": { "type": "Point", "coordinates": [ -99.063, 32.469 ] } }
,
{ "type": "Feature", "id": 5453, "properties": { "pull_date": "2\/25\/11", "latitude": 34.831, "longitude": -100.809, "fire_name": "BITTER CREEK", "fire_number": "TX-TXS-11018", "area": 850.0, "report_date": "2\/24\/11" }, "geometry": { "type": "Point", "coordinates": [ -100.809, 34.831 ] } }
,
{ "type": "Feature", "id": 5454, "properties": { "pull_date": "2\/25\/11", "latitude": 32.017, "longitude": -98.38, "fire_name": "CROUCH", "fire_number": "TX-TXS-11020", "area": 700.0, "report_date": "2\/24\/11" }, "geometry": { "type": "Point", "coordinates": [ -98.38, 32.017 ] } }
,
{ "type": "Feature", "id": 5455, "properties": { "pull_date": "2\/25\/11", "latitude": 34.504, "longitude": -96.014, "fire_name": "BILLY BRYANT", "fire_number": "OK-SEU-11-10046", "area": 670.0, "report_date": "2\/24\/11" }, "geometry": { "type": "Point", "coordinates": [ -96.014, 34.504 ] } }
,
{ "type": "Feature", "id": 5456, "properties": { "pull_date": "2\/25\/11", "latitude": 32.603, "longitude": -100.425, "fire_name": "BUSBY", "fire_number": "TX-TXS-11023", "area": 550.0, "report_date": "2\/24\/11" }, "geometry": { "type": "Point", "coordinates": [ -100.425, 32.603 ] } }
,
{ "type": "Feature", "id": 5457, "properties": { "pull_date": "2\/25\/11", "latitude": 34.299, "longitude": -87.196, "fire_name": "GREEN TOWER", "fire_number": "AL-ALF-110104", "area": 479.0, "report_date": "2\/24\/11" }, "geometry": { "type": "Point", "coordinates": [ -87.196, 34.299 ] } }
,
{ "type": "Feature", "id": 5458, "properties": { "pull_date": "2\/25\/11", "latitude": 38.521, "longitude": -79.038, "fire_name": "VALLEY", "fire_number": "VA-VIC-110002", "area": 4144.0, "report_date": "2\/24\/11" }, "geometry": { "type": "Point", "coordinates": [ -79.038, 38.521 ] } }
,
{ "type": "Feature", "id": 5459, "properties": { "pull_date": "2\/25\/11", "latitude": 35.712, "longitude": -95.092, "fire_name": "PUMPKIN CENTER RD.", "fire_number": "OK-NEU-11-30076", "area": 1300.0, "report_date": "2\/24\/11" }, "geometry": { "type": "Point", "coordinates": [ -95.092, 35.712 ] } }
,
{ "type": "Feature", "id": 5460, "properties": { "pull_date": "2\/25\/11", "latitude": 34.732, "longitude": -95.384, "fire_name": "ACES AND EIGHTS", "fire_number": "OK-ECU-11-20066", "area": 675.0, "report_date": "2\/24\/11" }, "geometry": { "type": "Point", "coordinates": [ -95.384, 34.732 ] } }
,
{ "type": "Feature", "id": 5461, "properties": { "pull_date": "2\/25\/11", "latitude": 35.71, "longitude": -95.056, "fire_name": "BLACK HOLLOW", "fire_number": "OK-NEU-11-30077", "area": 500.0, "report_date": "2\/24\/11" }, "geometry": { "type": "Point", "coordinates": [ -95.056, 35.71 ] } }
,
{ "type": "Feature", "id": 5462, "properties": { "pull_date": "2\/25\/11", "latitude": 28.195, "longitude": -81.957, "fire_name": "CREEKWOOD", "fire_number": "FL-FLS-2011-14-0146", "area": 350.0, "report_date": "2\/24\/11" }, "geometry": { "type": "Point", "coordinates": [ -81.957, 28.195 ] } }
,
{ "type": "Feature", "id": 5463, "properties": { "pull_date": "2\/25\/11", "latitude": 35.137, "longitude": -95.339, "fire_name": "HENSLEY #1", "fire_number": "OK-ECU-11-20067", "area": 304.0, "report_date": "2\/24\/11" }, "geometry": { "type": "Point", "coordinates": [ -95.339, 35.137 ] } }
,
{ "type": "Feature", "id": 5464, "properties": { "pull_date": "2\/25\/11", "latitude": 34.225, "longitude": -109.481, "fire_name": "BIG HOLLOW", "fire_number": "AZ-A2S-110119", "area": 1400.0, "report_date": "2\/24\/11" }, "geometry": { "type": "Point", "coordinates": [ -109.481, 34.225 ] } }
,
{ "type": "Feature", "id": 5465, "properties": { "pull_date": "2\/26\/11", "latitude": 34.831, "longitude": -100.809, "fire_name": "BITTER CREEK", "fire_number": "TX-TXS-11018", "area": 850.0, "report_date": "2\/25\/11" }, "geometry": { "type": "Point", "coordinates": [ -100.809, 34.831 ] } }
,
{ "type": "Feature", "id": 5466, "properties": { "pull_date": "2\/26\/11", "latitude": 34.504, "longitude": -96.014, "fire_name": "BILLY BRYANT", "fire_number": "OK-SEU-11-10046", "area": 680.0, "report_date": "2\/25\/11" }, "geometry": { "type": "Point", "coordinates": [ -96.014, 34.504 ] } }
,
{ "type": "Feature", "id": 5467, "properties": { "pull_date": "2\/26\/11", "latitude": 35.75, "longitude": -102.402, "fire_name": "HWY 2357 COMPLEX", "fire_number": "TX-TXS-11021", "area": 2700.0, "report_date": "2\/25\/11" }, "geometry": { "type": "Point", "coordinates": [ -102.402, 35.75 ] } }
,
{ "type": "Feature", "id": 5468, "properties": { "pull_date": "2\/26\/11", "latitude": 32.469, "longitude": -99.063, "fire_name": "CISCO", "fire_number": "TX-TXS-11022", "area": 500.0, "report_date": "2\/25\/11" }, "geometry": { "type": "Point", "coordinates": [ -99.063, 32.469 ] } }
,
{ "type": "Feature", "id": 5469, "properties": { "pull_date": "2\/26\/11", "latitude": 32.091, "longitude": -100.256, "fire_name": "DIAMOND PLATE", "fire_number": "TX-TXS-11019", "area": 1300.0, "report_date": "2\/25\/11" }, "geometry": { "type": "Point", "coordinates": [ -100.256, 32.091 ] } }
,
{ "type": "Feature", "id": 5470, "properties": { "pull_date": "2\/26\/11", "latitude": 30.659, "longitude": -99.265, "fire_name": "JAMES RIVER ROAD", "fire_number": "TX-TXS-11017", "area": 4200.0, "report_date": "2\/25\/11" }, "geometry": { "type": "Point", "coordinates": [ -99.265, 30.659 ] } }
,
{ "type": "Feature", "id": 5471, "properties": { "pull_date": "2\/26\/11", "latitude": 32.603, "longitude": -100.425, "fire_name": "BUSBY", "fire_number": "TX-TXS-11023", "area": 550.0, "report_date": "2\/25\/11" }, "geometry": { "type": "Point", "coordinates": [ -100.425, 32.603 ] } }
,
{ "type": "Feature", "id": 5472, "properties": { "pull_date": "2\/26\/11", "latitude": 32.017, "longitude": -98.38, "fire_name": "CROUCH", "fire_number": "TX-TXS-11020", "area": 700.0, "report_date": "2\/25\/11" }, "geometry": { "type": "Point", "coordinates": [ -98.38, 32.017 ] } }
,
{ "type": "Feature", "id": 5473, "properties": { "pull_date": "2\/26\/11", "latitude": 27.328, "longitude": -98.07, "fire_name": "GUS CANALAS", "fire_number": "TX-TXS-11024", "area": 4800.0, "report_date": "2\/25\/11" }, "geometry": { "type": "Point", "coordinates": [ -98.07, 27.328 ] } }
,
{ "type": "Feature", "id": 5474, "properties": { "pull_date": "2\/26\/11", "latitude": 32.073, "longitude": -104.846, "fire_name": "DOG CANYON", "fire_number": "NM-CAD-011", "area": 5500.0, "report_date": "2\/25\/11" }, "geometry": { "type": "Point", "coordinates": [ -104.846, 32.073 ] } }
,
{ "type": "Feature", "id": 5475, "properties": { "pull_date": "2\/26\/11", "latitude": 38.808, "longitude": -78.194, "fire_name": "SMITH RUN FIRE", "fire_number": "VA-SHP-010006", "area": 1897.0, "report_date": "2\/24\/11" }, "geometry": { "type": "Point", "coordinates": [ -78.194, 38.808 ] } }
,
{ "type": "Feature", "id": 5476, "properties": { "pull_date": "2\/26\/11", "latitude": 34.395, "longitude": -87.522, "fire_name": "FORD", "fire_number": "AL-ALF-110103", "area": 1014.0, "report_date": "2\/24\/11" }, "geometry": { "type": "Point", "coordinates": [ -87.522, 34.395 ] } }
,
{ "type": "Feature", "id": 5477, "properties": { "pull_date": "2\/26\/11", "latitude": 34.299, "longitude": -87.196, "fire_name": "GREEN TOWER", "fire_number": "AL-ALF-110104", "area": 479.0, "report_date": "2\/24\/11" }, "geometry": { "type": "Point", "coordinates": [ -87.196, 34.299 ] } }
,
{ "type": "Feature", "id": 5478, "properties": { "pull_date": "2\/27\/11", "latitude": 27.328, "longitude": -98.07, "fire_name": "GUS CANALAS", "fire_number": "TX-TXS-11024", "area": 4800.0, "report_date": "2\/25\/11" }, "geometry": { "type": "Point", "coordinates": [ -98.07, 27.328 ] } }
,
{ "type": "Feature", "id": 5479, "properties": { "pull_date": "2\/27\/11", "latitude": 30.659, "longitude": -99.265, "fire_name": "JAMES RIVER ROAD", "fire_number": "TX-TXS-11017", "area": 4200.0, "report_date": "2\/25\/11" }, "geometry": { "type": "Point", "coordinates": [ -99.265, 30.659 ] } }
,
{ "type": "Feature", "id": 5480, "properties": { "pull_date": "2\/27\/11", "latitude": 35.75, "longitude": -102.402, "fire_name": "HWY 2357 COMPLEX", "fire_number": "TX-TXS-11021", "area": 2700.0, "report_date": "2\/25\/11" }, "geometry": { "type": "Point", "coordinates": [ -102.402, 35.75 ] } }
,
{ "type": "Feature", "id": 5481, "properties": { "pull_date": "2\/27\/11", "latitude": 38.808, "longitude": -78.194, "fire_name": "SMITH RUN FIRE", "fire_number": "VA-SHP-010006", "area": 1897.0, "report_date": "2\/24\/11" }, "geometry": { "type": "Point", "coordinates": [ -78.194, 38.808 ] } }
,
{ "type": "Feature", "id": 5482, "properties": { "pull_date": "2\/27\/11", "latitude": 34.395, "longitude": -87.522, "fire_name": "FORD", "fire_number": "AL-ALF-110103", "area": 1014.0, "report_date": "2\/24\/11" }, "geometry": { "type": "Point", "coordinates": [ -87.522, 34.395 ] } }
,
{ "type": "Feature", "id": 5483, "properties": { "pull_date": "2\/27\/11", "latitude": 34.831, "longitude": -100.809, "fire_name": "BITTER CREEK", "fire_number": "TX-TXS-11018", "area": 850.0, "report_date": "2\/25\/11" }, "geometry": { "type": "Point", "coordinates": [ -100.809, 34.831 ] } }
,
{ "type": "Feature", "id": 5484, "properties": { "pull_date": "2\/27\/11", "latitude": 32.469, "longitude": -99.063, "fire_name": "CISCO", "fire_number": "TX-TXS-11022", "area": 500.0, "report_date": "2\/25\/11" }, "geometry": { "type": "Point", "coordinates": [ -99.063, 32.469 ] } }
,
{ "type": "Feature", "id": 5485, "properties": { "pull_date": "2\/27\/11", "latitude": 34.299, "longitude": -87.196, "fire_name": "GREEN TOWER", "fire_number": "AL-ALF-110104", "area": 479.0, "report_date": "2\/24\/11" }, "geometry": { "type": "Point", "coordinates": [ -87.196, 34.299 ] } }
,
{ "type": "Feature", "id": 5486, "properties": { "pull_date": "2\/27\/11", "latitude": 32.091, "longitude": -100.256, "fire_name": "DIAMOND PLATE", "fire_number": "TX-TXS-11019", "area": 1300.0, "report_date": "2\/25\/11" }, "geometry": { "type": "Point", "coordinates": [ -100.256, 32.091 ] } }
,
{ "type": "Feature", "id": 5487, "properties": { "pull_date": "2\/27\/11", "latitude": 32.017, "longitude": -98.38, "fire_name": "CROUCH", "fire_number": "TX-TXS-11020", "area": 700.0, "report_date": "2\/25\/11" }, "geometry": { "type": "Point", "coordinates": [ -98.38, 32.017 ] } }
,
{ "type": "Feature", "id": 5488, "properties": { "pull_date": "2\/27\/11", "latitude": 34.504, "longitude": -96.014, "fire_name": "BILLY BRYANT", "fire_number": "OK-SEU-11-10046", "area": 680.0, "report_date": "2\/25\/11" }, "geometry": { "type": "Point", "coordinates": [ -96.014, 34.504 ] } }
,
{ "type": "Feature", "id": 5489, "properties": { "pull_date": "2\/27\/11", "latitude": 32.603, "longitude": -100.425, "fire_name": "BUSBY", "fire_number": "TX-TXS-11023", "area": 550.0, "report_date": "2\/25\/11" }, "geometry": { "type": "Point", "coordinates": [ -100.425, 32.603 ] } }
,
{ "type": "Feature", "id": 5490, "properties": { "pull_date": "2\/27\/11", "latitude": 32.073, "longitude": -104.846, "fire_name": "DOG CANYON", "fire_number": "NM-CAD-011", "area": 5500.0, "report_date": "2\/25\/11" }, "geometry": { "type": "Point", "coordinates": [ -104.846, 32.073 ] } }
,
{ "type": "Feature", "id": 5491, "properties": { "pull_date": "2\/28\/11", "latitude": 32.028, "longitude": -104.926, "fire_name": "DOG CANYON", "fire_number": "NM-CAD-00011", "area": 3418.0, "report_date": "2\/27\/11" }, "geometry": { "type": "Point", "coordinates": [ -104.926, 32.028 ] } }
,
{ "type": "Feature", "id": 5492, "properties": { "pull_date": "2\/28\/11", "latitude": 33.69, "longitude": -103.57, "fire_name": "PRAIRIE", "fire_number": "NM-N5S-132", "area": 5000.0, "report_date": "2\/27\/11" }, "geometry": { "type": "Point", "coordinates": [ -103.57, 33.69 ] } }
,
{ "type": "Feature", "id": 5493, "properties": { "pull_date": "2\/28\/11", "latitude": 35.383, "longitude": -101.606, "fire_name": "WILLOW CREEK SOUTH", "fire_number": "TX-TXS-11025", "area": 30000.0, "report_date": "2\/27\/11" }, "geometry": { "type": "Point", "coordinates": [ -101.606, 35.383 ] } }
,
{ "type": "Feature", "id": 5494, "properties": { "pull_date": "2\/28\/11", "latitude": 32.385, "longitude": -102.42, "fire_name": "TOM", "fire_number": "TX-TXS-11036", "area": 21000.0, "report_date": "2\/27\/11" }, "geometry": { "type": "Point", "coordinates": [ -102.42, 32.385 ] } }
,
{ "type": "Feature", "id": 5495, "properties": { "pull_date": "2\/28\/11", "latitude": 34.005, "longitude": -100.827, "fire_name": "MATADOR WEST", "fire_number": "TX-TXS-11027", "area": 15000.0, "report_date": "2\/27\/11" }, "geometry": { "type": "Point", "coordinates": [ -100.827, 34.005 ] } }
,
{ "type": "Feature", "id": 5496, "properties": { "pull_date": "2\/28\/11", "latitude": 32.097, "longitude": -101.167, "fire_name": "MITCHELL COUNTY COMPLEX", "fire_number": "TX-TXS-11033", "area": 7000.0, "report_date": "2\/27\/11" }, "geometry": { "type": "Point", "coordinates": [ -101.167, 32.097 ] } }
,
{ "type": "Feature", "id": 5497, "properties": { "pull_date": "2\/28\/11", "latitude": 27.328, "longitude": -98.07, "fire_name": "GUS CANALAS", "fire_number": "TX-TXS-11024", "area": 4800.0, "report_date": "2\/27\/11" }, "geometry": { "type": "Point", "coordinates": [ -98.07, 27.328 ] } }
,
{ "type": "Feature", "id": 5498, "properties": { "pull_date": "2\/28\/11", "latitude": 30.659, "longitude": -99.265, "fire_name": "JAMES RIVER ROAD", "fire_number": "TX-TXS-11017", "area": 4200.0, "report_date": "2\/27\/11" }, "geometry": { "type": "Point", "coordinates": [ -99.265, 30.659 ] } }
,
{ "type": "Feature", "id": 5499, "properties": { "pull_date": "2\/28\/11", "latitude": 32.138, "longitude": -100.164, "fire_name": "SHEPARD'S COMPLEX", "fire_number": "TX-TFS-11026", "area": 4000.0, "report_date": "2\/27\/11" }, "geometry": { "type": "Point", "coordinates": [ -100.164, 32.138 ] } }
,
{ "type": "Feature", "id": 5500, "properties": { "pull_date": "2\/28\/11", "latitude": 35.091, "longitude": -101.813, "fire_name": "TANGLEWOOD COMPLEX", "fire_number": "TX-TXS-11032", "area": 2000.0, "report_date": "2\/27\/11" }, "geometry": { "type": "Point", "coordinates": [ -101.813, 35.091 ] } }
,
{ "type": "Feature", "id": 5501, "properties": { "pull_date": "2\/28\/11", "latitude": 31.054, "longitude": -101.25, "fire_name": "WILLIAMS", "fire_number": "TX-TXS-11029", "area": 1800.0, "report_date": "2\/27\/11" }, "geometry": { "type": "Point", "coordinates": [ -101.25, 31.054 ] } }
,
{ "type": "Feature", "id": 5502, "properties": { "pull_date": "2\/28\/11", "latitude": 38.808, "longitude": -78.194, "fire_name": "SMITH RUN FIRE", "fire_number": "VA-SHP-010006", "area": 1712.0, "report_date": "2\/26\/11" }, "geometry": { "type": "Point", "coordinates": [ -78.194, 38.808 ] } }
,
{ "type": "Feature", "id": 5503, "properties": { "pull_date": "2\/28\/11", "latitude": 34.622, "longitude": -101.401, "fire_name": "BRISCOE", "fire_number": "TX-TXS-11038", "area": 1000.0, "report_date": "2\/27\/11" }, "geometry": { "type": "Point", "coordinates": [ -101.401, 34.622 ] } }
,
{ "type": "Feature", "id": 5504, "properties": { "pull_date": "2\/28\/11", "latitude": 32.275, "longitude": -98.964, "fire_name": "2526", "fire_number": "TX-TXS-11035", "area": 700.0, "report_date": "2\/27\/11" }, "geometry": { "type": "Point", "coordinates": [ -98.964, 32.275 ] } }
,
{ "type": "Feature", "id": 5505, "properties": { "pull_date": "2\/28\/11", "latitude": 30.317, "longitude": -85.133, "fire_name": "GREGORY MILL", "fire_number": "FL-FNF-011017", "area": 589.0, "report_date": "2\/27\/11" }, "geometry": { "type": "Point", "coordinates": [ -85.133, 30.317 ] } }
,
{ "type": "Feature", "id": 5506, "properties": { "pull_date": "2\/28\/11", "latitude": 32.151, "longitude": -94.968, "fire_name": "QUINN RANCH", "fire_number": "TX-TXS-11034", "area": 500.0, "report_date": "2\/27\/11" }, "geometry": { "type": "Point", "coordinates": [ -94.968, 32.151 ] } }
,
{ "type": "Feature", "id": 5507, "properties": { "pull_date": "2\/28\/11", "latitude": 31.963, "longitude": -102.148, "fire_name": "ACCIDENT", "fire_number": "TX-TXS-11037", "area": 300.0, "report_date": "2\/27\/11" }, "geometry": { "type": "Point", "coordinates": [ -102.148, 31.963 ] } }
,
{ "type": "Feature", "id": 5508, "properties": { "pull_date": "2\/28\/11", "latitude": 32.977, "longitude": -99.631, "fire_name": "MCCELLEAN", "fire_number": "TX-TXS-11028", "area": 300.0, "report_date": "2\/27\/11" }, "geometry": { "type": "Point", "coordinates": [ -99.631, 32.977 ] } }
,
{ "type": "Feature", "id": 5509, "properties": { "pull_date": "2\/28\/11", "latitude": 33.585, "longitude": -102.374, "fire_name": "HOCKLEY", "fire_number": "TX-TXS-11030", "area": 5000.0, "report_date": "2\/27\/11" }, "geometry": { "type": "Point", "coordinates": [ -102.374, 33.585 ] } }
,
{ "type": "Feature", "id": 5510, "properties": { "pull_date": "2\/28\/11", "latitude": 28.554, "longitude": -80.854, "fire_name": "FAIRFIELD", "fire_number": "FL-FLS-2011-12-0158", "area": 1750.0, "report_date": "2\/27\/11" }, "geometry": { "type": "Point", "coordinates": [ -80.854, 28.554 ] } }
,
{ "type": "Feature", "id": 5511, "properties": { "pull_date": "2\/28\/11", "latitude": 27.777, "longitude": -81.376, "fire_name": "LAKEVIEW CMD", "fire_number": "FL-FLS-2011-14-0162", "area": 600.0, "report_date": "2\/27\/11" }, "geometry": { "type": "Point", "coordinates": [ -81.376, 27.777 ] } }
,
{ "type": "Feature", "id": 5512, "properties": { "pull_date": "2\/28\/11", "latitude": 28.382, "longitude": -81.86, "fire_name": "WATER", "fire_number": "FL-FLS-2011-11-0200", "area": 550.0, "report_date": "2\/27\/11" }, "geometry": { "type": "Point", "coordinates": [ -81.86, 28.382 ] } }
,
{ "type": "Feature", "id": 5513, "properties": { "pull_date": "2\/28\/11", "latitude": 34.831, "longitude": -100.809, "fire_name": "BITTER CREEK", "fire_number": "TX-TXS-11018", "area": 850.0, "report_date": "2\/26\/11" }, "geometry": { "type": "Point", "coordinates": [ -100.809, 34.831 ] } }
,
{ "type": "Feature", "id": 5514, "properties": { "pull_date": "2\/28\/11", "latitude": 28.304, "longitude": -81.413, "fire_name": "ANGUS FIRE", "fire_number": "FL-FLS-2011-12-0160", "area": 500.0, "report_date": "2\/27\/11" }, "geometry": { "type": "Point", "coordinates": [ -81.413, 28.304 ] } }
,
{ "type": "Feature", "id": 5515, "properties": { "pull_date": "2\/28\/11", "latitude": 35.75, "longitude": -102.402, "fire_name": "HWY 2357 COMPLEX", "fire_number": "TX-TXS-11021", "area": 2700.0, "report_date": "2\/26\/11" }, "geometry": { "type": "Point", "coordinates": [ -102.402, 35.75 ] } }
,
{ "type": "Feature", "id": 5516, "properties": { "pull_date": "3\/1\/11", "latitude": 35.75, "longitude": -102.402, "fire_name": "HWY 2357 COMPLEX", "fire_number": "TX-TXS-11021", "area": 2700.0, "report_date": "2\/26\/11" }, "geometry": { "type": "Point", "coordinates": [ -102.402, 35.75 ] } }
,
{ "type": "Feature", "id": 5517, "properties": { "pull_date": "3\/1\/11", "latitude": 29.429, "longitude": -81.789, "fire_name": "FERRY 7", "fire_number": "FL-FNF-0110018", "area": 682.0, "report_date": "2\/28\/11" }, "geometry": { "type": "Point", "coordinates": [ -81.789, 29.429 ] } }
,
{ "type": "Feature", "id": 5518, "properties": { "pull_date": "3\/1\/11", "latitude": 28.742, "longitude": -80.966, "fire_name": "IRON HORSE", "fire_number": "FL-FLS-2011-12-0161", "area": 2800.0, "report_date": "2\/28\/11" }, "geometry": { "type": "Point", "coordinates": [ -80.966, 28.742 ] } }
,
{ "type": "Feature", "id": 5519, "properties": { "pull_date": "3\/1\/11", "latitude": 29.684, "longitude": -81.328, "fire_name": "KELLER", "fire_number": "FL-FLS-2011-10-0155", "area": 2000.0, "report_date": "2\/28\/11" }, "geometry": { "type": "Point", "coordinates": [ -81.328, 29.684 ] } }
,
{ "type": "Feature", "id": 5520, "properties": { "pull_date": "3\/1\/11", "latitude": 35.091, "longitude": -101.813, "fire_name": "TANGLEWOOD COMPLEX", "fire_number": "TX-TXS-11032", "area": 1659.0, "report_date": "2\/28\/11" }, "geometry": { "type": "Point", "coordinates": [ -101.813, 35.091 ] } }
,
{ "type": "Feature", "id": 5521, "properties": { "pull_date": "3\/1\/11", "latitude": 35.383, "longitude": -101.606, "fire_name": "WILLOW CREEK SOUTH COMPLEX", "fire_number": "TX-TXS-11025", "area": 24310.0, "report_date": "2\/28\/11" }, "geometry": { "type": "Point", "coordinates": [ -101.606, 35.383 ] } }
,
{ "type": "Feature", "id": 5522, "properties": { "pull_date": "3\/1\/11", "latitude": 30.317, "longitude": -85.133, "fire_name": "GREGORY MILL", "fire_number": "FL-FNF-011017", "area": 589.4, "report_date": "2\/28\/11" }, "geometry": { "type": "Point", "coordinates": [ -85.133, 30.317 ] } }
,
{ "type": "Feature", "id": 5523, "properties": { "pull_date": "3\/1\/11", "latitude": 32.151, "longitude": -94.968, "fire_name": "QUINN RANCH", "fire_number": "TX-TXS-11034", "area": 1000.0, "report_date": "2\/28\/11" }, "geometry": { "type": "Point", "coordinates": [ -94.968, 32.151 ] } }
,
{ "type": "Feature", "id": 5524, "properties": { "pull_date": "3\/1\/11", "latitude": 27.328, "longitude": -98.07, "fire_name": "GUS CANALAS", "fire_number": "TX-TXS-11024", "area": 4800.0, "report_date": "2\/28\/11" }, "geometry": { "type": "Point", "coordinates": [ -98.07, 27.328 ] } }
,
{ "type": "Feature", "id": 5525, "properties": { "pull_date": "3\/1\/11", "latitude": 35.001, "longitude": -101.969, "fire_name": "ARNOT", "fire_number": "TX-TXS-11039", "area": 419.0, "report_date": "2\/28\/11" }, "geometry": { "type": "Point", "coordinates": [ -101.969, 35.001 ] } }
,
{ "type": "Feature", "id": 5526, "properties": { "pull_date": "3\/1\/11", "latitude": 32.097, "longitude": -101.167, "fire_name": "MITCHELL COUNTY COMPLEX", "fire_number": "TX-TXS-11033", "area": 13741.0, "report_date": "2\/28\/11" }, "geometry": { "type": "Point", "coordinates": [ -101.167, 32.097 ] } }
,
{ "type": "Feature", "id": 5527, "properties": { "pull_date": "3\/1\/11", "latitude": 34.622, "longitude": -101.401, "fire_name": "BRISCOE", "fire_number": "TX-TXS-11038", "area": 1000.0, "report_date": "2\/28\/11" }, "geometry": { "type": "Point", "coordinates": [ -101.401, 34.622 ] } }
,
{ "type": "Feature", "id": 5528, "properties": { "pull_date": "3\/1\/11", "latitude": 31.963, "longitude": -102.148, "fire_name": "ACCIDENT", "fire_number": "TX-TXS-11037", "area": 300.0, "report_date": "2\/28\/11" }, "geometry": { "type": "Point", "coordinates": [ -102.148, 31.963 ] } }
,
{ "type": "Feature", "id": 5529, "properties": { "pull_date": "3\/1\/11", "latitude": 30.659, "longitude": -99.265, "fire_name": "JAMES RIVER ROAD", "fire_number": "TX-TXS-11017", "area": 4200.0, "report_date": "2\/28\/11" }, "geometry": { "type": "Point", "coordinates": [ -99.265, 30.659 ] } }
,
{ "type": "Feature", "id": 5530, "properties": { "pull_date": "3\/1\/11", "latitude": 32.138, "longitude": -100.164, "fire_name": "SHEPARD'S COMPLEX", "fire_number": "TX-TFS-11026", "area": 7500.0, "report_date": "2\/28\/11" }, "geometry": { "type": "Point", "coordinates": [ -100.164, 32.138 ] } }
,
{ "type": "Feature", "id": 5531, "properties": { "pull_date": "3\/1\/11", "latitude": 31.054, "longitude": -101.25, "fire_name": "WILLIAMS", "fire_number": "TX-TXS-11029", "area": 1800.0, "report_date": "2\/28\/11" }, "geometry": { "type": "Point", "coordinates": [ -101.25, 31.054 ] } }
,
{ "type": "Feature", "id": 5532, "properties": { "pull_date": "3\/1\/11", "latitude": 32.385, "longitude": -102.42, "fire_name": "TOM", "fire_number": "TX-TXS-11036", "area": 21000.0, "report_date": "2\/28\/11" }, "geometry": { "type": "Point", "coordinates": [ -102.42, 32.385 ] } }
,
{ "type": "Feature", "id": 5533, "properties": { "pull_date": "3\/1\/11", "latitude": 34.005, "longitude": -100.827, "fire_name": "MATADOR WEST", "fire_number": "TX-TXS-11027", "area": 40000.0, "report_date": "2\/28\/11" }, "geometry": { "type": "Point", "coordinates": [ -100.827, 34.005 ] } }
,
{ "type": "Feature", "id": 5534, "properties": { "pull_date": "3\/1\/11", "latitude": 32.275, "longitude": -98.964, "fire_name": "2526", "fire_number": "TX-TXS-11035", "area": 700.0, "report_date": "2\/28\/11" }, "geometry": { "type": "Point", "coordinates": [ -98.964, 32.275 ] } }
,
{ "type": "Feature", "id": 5535, "properties": { "pull_date": "3\/1\/11", "latitude": 32.977, "longitude": -99.631, "fire_name": "MCCELLEAN", "fire_number": "TX-TXS-11028", "area": 300.0, "report_date": "2\/28\/11" }, "geometry": { "type": "Point", "coordinates": [ -99.631, 32.977 ] } }
,
{ "type": "Feature", "id": 5536, "properties": { "pull_date": "3\/1\/11", "latitude": 38.521, "longitude": -79.038, "fire_name": "COFFMAN\/CHESTNUT RIDGE", "fire_number": "VA-VAF-000026", "area": 3479.0, "report_date": "2\/28\/11" }, "geometry": { "type": "Point", "coordinates": [ -79.038, 38.521 ] } }
,
{ "type": "Feature", "id": 5537, "properties": { "pull_date": "3\/1\/11", "latitude": 38.808, "longitude": -78.194, "fire_name": "SMITH RUN FIRE", "fire_number": "VA-SHP-010006", "area": 1712.0, "report_date": "2\/28\/11" }, "geometry": { "type": "Point", "coordinates": [ -78.194, 38.808 ] } }
,
{ "type": "Feature", "id": 5538, "properties": { "pull_date": "3\/1\/11", "latitude": 30.008, "longitude": -92.843, "fire_name": "JESSE BIRTHDAY", "fire_number": "LA-LCR-011002", "area": 835.0, "report_date": "2\/27\/11" }, "geometry": { "type": "Point", "coordinates": [ -92.843, 30.008 ] } }
,
{ "type": "Feature", "id": 5539, "properties": { "pull_date": "3\/1\/11", "latitude": 33.075, "longitude": -103.775, "fire_name": "ENTERPRISE", "fire_number": "NM-N5S-133", "area": 64936.0, "report_date": "2\/28\/11" }, "geometry": { "type": "Point", "coordinates": [ -103.775, 33.075 ] } }
,
{ "type": "Feature", "id": 5540, "properties": { "pull_date": "3\/1\/11", "latitude": 32.028, "longitude": -104.926, "fire_name": "DOG CANYON", "fire_number": "NM-CAD-00011", "area": 3418.0, "report_date": "2\/28\/11" }, "geometry": { "type": "Point", "coordinates": [ -104.926, 32.028 ] } }
,
{ "type": "Feature", "id": 5541, "properties": { "pull_date": "3\/1\/11", "latitude": 32.607, "longitude": -104.362, "fire_name": "DELTA", "fire_number": "NM-N5S-130", "area": 3200.0, "report_date": "2\/28\/11" }, "geometry": { "type": "Point", "coordinates": [ -104.362, 32.607 ] } }
,
{ "type": "Feature", "id": 5542, "properties": { "pull_date": "3\/2\/11", "latitude": 28.742, "longitude": -80.966, "fire_name": "IRON HORSE", "fire_number": "FL-FLS-2011-12-0161", "area": 16144.0, "report_date": "3\/1\/11" }, "geometry": { "type": "Point", "coordinates": [ -80.966, 28.742 ] } }
,
{ "type": "Feature", "id": 5543, "properties": { "pull_date": "3\/2\/11", "latitude": 35.383, "longitude": -101.606, "fire_name": "WILLOW CREEK SOUTH COMPLEX", "fire_number": "TX-TXS-11025", "area": 24310.0, "report_date": "3\/1\/11" }, "geometry": { "type": "Point", "coordinates": [ -101.606, 35.383 ] } }
,
{ "type": "Feature", "id": 5544, "properties": { "pull_date": "3\/2\/11", "latitude": 32.097, "longitude": -101.167, "fire_name": "MITCHELL COUNTY COMPLEX", "fire_number": "TX-TXS-11033", "area": 13740.0, "report_date": "3\/1\/11" }, "geometry": { "type": "Point", "coordinates": [ -101.167, 32.097 ] } }
,
{ "type": "Feature", "id": 5545, "properties": { "pull_date": "3\/2\/11", "latitude": 32.138, "longitude": -100.164, "fire_name": "SHEPARD'S COMPLEX", "fire_number": "TX-TFS-11026", "area": 7500.0, "report_date": "3\/1\/11" }, "geometry": { "type": "Point", "coordinates": [ -100.164, 32.138 ] } }
,
{ "type": "Feature", "id": 5546, "properties": { "pull_date": "3\/2\/11", "latitude": 38.521, "longitude": -79.038, "fire_name": "COFFMAN\/CHESTNUT RIDGE", "fire_number": "VA-VAF-000026", "area": 3479.0, "report_date": "3\/1\/11" }, "geometry": { "type": "Point", "coordinates": [ -79.038, 38.521 ] } }
,
{ "type": "Feature", "id": 5547, "properties": { "pull_date": "3\/2\/11", "latitude": 31.109, "longitude": -82.094, "fire_name": "CREWS ROAD", "fire_number": "GA-GAS-011006", "area": 2250.0, "report_date": "3\/1\/11" }, "geometry": { "type": "Point", "coordinates": [ -82.094, 31.109 ] } }
,
{ "type": "Feature", "id": 5548, "properties": { "pull_date": "3\/2\/11", "latitude": 29.684, "longitude": -81.328, "fire_name": "KELLER", "fire_number": "FL-FLS-2011-10-0155", "area": 1450.0, "report_date": "3\/1\/11" }, "geometry": { "type": "Point", "coordinates": [ -81.328, 29.684 ] } }
,
{ "type": "Feature", "id": 5549, "properties": { "pull_date": "3\/2\/11", "latitude": 35.091, "longitude": -101.813, "fire_name": "TANGLEWOOD COMPLEX", "fire_number": "TX-TXS-11032", "area": 1659.0, "report_date": "3\/1\/11" }, "geometry": { "type": "Point", "coordinates": [ -101.813, 35.091 ] } }
,
{ "type": "Feature", "id": 5550, "properties": { "pull_date": "3\/2\/11", "latitude": 30.008, "longitude": -92.843, "fire_name": "JESSE BIRTHDAY", "fire_number": "LA-LCR-011002", "area": 835.0, "report_date": "3\/1\/11" }, "geometry": { "type": "Point", "coordinates": [ -92.843, 30.008 ] } }
,
{ "type": "Feature", "id": 5551, "properties": { "pull_date": "3\/2\/11", "latitude": 29.429, "longitude": -81.789, "fire_name": "FERRY 7", "fire_number": "FL-FNF-0110018", "area": 682.0, "report_date": "3\/1\/11" }, "geometry": { "type": "Point", "coordinates": [ -81.789, 29.429 ] } }
,
{ "type": "Feature", "id": 5552, "properties": { "pull_date": "3\/2\/11", "latitude": 30.317, "longitude": -85.133, "fire_name": "GREGORY MILL", "fire_number": "FL-FNF-011017", "area": 589.4, "report_date": "3\/1\/11" }, "geometry": { "type": "Point", "coordinates": [ -85.133, 30.317 ] } }
,
{ "type": "Feature", "id": 5553, "properties": { "pull_date": "3\/2\/11", "latitude": 30.226, "longitude": -103.779, "fire_name": "MIND", "fire_number": "TX-TXS-11040", "area": 400.0, "report_date": "3\/1\/11" }, "geometry": { "type": "Point", "coordinates": [ -103.779, 30.226 ] } }
,
{ "type": "Feature", "id": 5554, "properties": { "pull_date": "3\/2\/11", "latitude": 34.622, "longitude": -101.401, "fire_name": "BRISCOE", "fire_number": "TX-TXS-11038", "area": 1000.0, "report_date": "3\/1\/11" }, "geometry": { "type": "Point", "coordinates": [ -101.401, 34.622 ] } }
,
{ "type": "Feature", "id": 5555, "properties": { "pull_date": "3\/2\/11", "latitude": 37.167, "longitude": -100.008, "fire_name": "HEINSON FARM", "fire_number": "KS-KSX-148", "area": 1280.0, "report_date": "3\/1\/11" }, "geometry": { "type": "Point", "coordinates": [ -100.008, 37.167 ] } }
,
{ "type": "Feature", "id": 5556, "properties": { "pull_date": "3\/3\/11", "latitude": 32.943, "longitude": -103.756, "fire_name": "RUFUS", "fire_number": "NM-N5S-136", "area": 723.0, "report_date": "3\/2\/11" }, "geometry": { "type": "Point", "coordinates": [ -103.756, 32.943 ] } }
,
{ "type": "Feature", "id": 5557, "properties": { "pull_date": "3\/3\/11", "latitude": 31.109, "longitude": -82.094, "fire_name": "CREWS ROAD", "fire_number": "GA-GAS-011006", "area": 2250.0, "report_date": "3\/2\/11" }, "geometry": { "type": "Point", "coordinates": [ -82.094, 31.109 ] } }
,
{ "type": "Feature", "id": 5558, "properties": { "pull_date": "3\/3\/11", "latitude": 28.742, "longitude": -80.966, "fire_name": "IRON HORSE", "fire_number": "FL-FLS-2011-12-0161", "area": 17434.0, "report_date": "3\/2\/11" }, "geometry": { "type": "Point", "coordinates": [ -80.966, 28.742 ] } }
,
{ "type": "Feature", "id": 5559, "properties": { "pull_date": "3\/3\/11", "latitude": 30.226, "longitude": -103.779, "fire_name": "MIND", "fire_number": "TX-TXS-11040", "area": 1200.0, "report_date": "3\/2\/11" }, "geometry": { "type": "Point", "coordinates": [ -103.779, 30.226 ] } }
,
{ "type": "Feature", "id": 5560, "properties": { "pull_date": "3\/3\/11", "latitude": 29.684, "longitude": -81.328, "fire_name": "KELLER", "fire_number": "FL-FLS-2011-10-0155", "area": 1450.0, "report_date": "3\/2\/11" }, "geometry": { "type": "Point", "coordinates": [ -81.328, 29.684 ] } }
,
{ "type": "Feature", "id": 5561, "properties": { "pull_date": "3\/3\/11", "latitude": 35.091, "longitude": -101.813, "fire_name": "TANGLEWOOD COMPLEX", "fire_number": "TX-TXS-11032", "area": 1659.0, "report_date": "3\/2\/11" }, "geometry": { "type": "Point", "coordinates": [ -101.813, 35.091 ] } }
,
{ "type": "Feature", "id": 5562, "properties": { "pull_date": "3\/3\/11", "latitude": 38.521, "longitude": -79.038, "fire_name": "COFFMAN\/CHESTNUT RIDGE", "fire_number": "VA-VAF-000026", "area": 3479.0, "report_date": "3\/2\/11" }, "geometry": { "type": "Point", "coordinates": [ -79.038, 38.521 ] } }
,
{ "type": "Feature", "id": 5563, "properties": { "pull_date": "3\/3\/11", "latitude": 32.097, "longitude": -101.167, "fire_name": "MITCHELL COUNTY COMPLEX", "fire_number": "TX-TXS-11033", "area": 13740.0, "report_date": "3\/2\/11" }, "geometry": { "type": "Point", "coordinates": [ -101.167, 32.097 ] } }
,
{ "type": "Feature", "id": 5564, "properties": { "pull_date": "3\/3\/11", "latitude": 35.383, "longitude": -101.606, "fire_name": "WILLOW CREEK SOUTH COMPLEX", "fire_number": "TX-TXS-11025", "area": 24310.0, "report_date": "3\/2\/11" }, "geometry": { "type": "Point", "coordinates": [ -101.606, 35.383 ] } }
,
{ "type": "Feature", "id": 5565, "properties": { "pull_date": "3\/3\/11", "latitude": 32.286, "longitude": -101.669, "fire_name": "SULPHUR DRAW", "fire_number": "TX-TXS-11041", "area": 350.0, "report_date": "3\/2\/11" }, "geometry": { "type": "Point", "coordinates": [ -101.669, 32.286 ] } }
,
{ "type": "Feature", "id": 5566, "properties": { "pull_date": "3\/3\/11", "latitude": 32.138, "longitude": -100.164, "fire_name": "SHEPERDS COMPLEX", "fire_number": "TX-TFS-11026", "area": 7500.0, "report_date": "3\/2\/11" }, "geometry": { "type": "Point", "coordinates": [ -100.164, 32.138 ] } }
,
{ "type": "Feature", "id": 5567, "properties": { "pull_date": "3\/3\/11", "latitude": 29.429, "longitude": -81.689, "fire_name": "FERRY 7", "fire_number": "FL-FNF-0110018", "area": 682.0, "report_date": "3\/2\/11" }, "geometry": { "type": "Point", "coordinates": [ -81.689, 29.429 ] } }
,
{ "type": "Feature", "id": 5568, "properties": { "pull_date": "3\/3\/11", "latitude": 36.637, "longitude": -96.267, "fire_name": "WEST", "fire_number": "OK-OSA-011035", "area": 1325.0, "report_date": "3\/2\/11" }, "geometry": { "type": "Point", "coordinates": [ -96.267, 36.637 ] } }
,
{ "type": "Feature", "id": 5569, "properties": { "pull_date": "3\/3\/11", "latitude": 30.317, "longitude": -85.133, "fire_name": "GREGORY MILL", "fire_number": "FL-FNF-011017", "area": 589.4, "report_date": "3\/2\/11" }, "geometry": { "type": "Point", "coordinates": [ -85.133, 30.317 ] } }
,
{ "type": "Feature", "id": 5570, "properties": { "pull_date": "3\/3\/11", "latitude": 31.394, "longitude": -90.913, "fire_name": "CL", "fire_number": "MS-MNF-040003", "area": 449.0, "report_date": "3\/2\/11" }, "geometry": { "type": "Point", "coordinates": [ -90.913, 31.394 ] } }
,
{ "type": "Feature", "id": 5571, "properties": { "pull_date": "3\/3\/11", "latitude": 30.008, "longitude": -92.843, "fire_name": "JESSE BIRTHDAY", "fire_number": "LA-LCR-011002", "area": 835.0, "report_date": "3\/2\/11" }, "geometry": { "type": "Point", "coordinates": [ -92.843, 30.008 ] } }
,
{ "type": "Feature", "id": 5572, "properties": { "pull_date": "3\/3\/11", "latitude": 34.742, "longitude": -95.596, "fire_name": "PINETREE", "fire_number": "OK-ECU-11-20069", "area": 420.0, "report_date": "3\/2\/11" }, "geometry": { "type": "Point", "coordinates": [ -95.596, 34.742 ] } }
,
{ "type": "Feature", "id": 5573, "properties": { "pull_date": "3\/3\/11", "latitude": 29.832, "longitude": -93.911, "fire_name": "WF TEXAS POINT AIR LOG", "fire_number": "TX-MCR-000001", "area": 2000.0, "report_date": "3\/2\/11" }, "geometry": { "type": "Point", "coordinates": [ -93.911, 29.832 ] } }
,
{ "type": "Feature", "id": 5574, "properties": { "pull_date": "3\/4\/11", "latitude": 28.742, "longitude": -80.966, "fire_name": "IRON HORSE", "fire_number": "FL-FLS-2011-12-0161", "area": 17434.0, "report_date": "3\/3\/11" }, "geometry": { "type": "Point", "coordinates": [ -80.966, 28.742 ] } }
,
{ "type": "Feature", "id": 5575, "properties": { "pull_date": "3\/4\/11", "latitude": 31.109, "longitude": -82.094, "fire_name": "CREWS ROAD", "fire_number": "GA-GAS-011006", "area": 2250.0, "report_date": "3\/2\/11" }, "geometry": { "type": "Point", "coordinates": [ -82.094, 31.109 ] } }
,
{ "type": "Feature", "id": 5576, "properties": { "pull_date": "3\/4\/11", "latitude": 30.226, "longitude": -103.779, "fire_name": "MIND", "fire_number": "TX-TXS-11040", "area": 2000.0, "report_date": "3\/3\/11" }, "geometry": { "type": "Point", "coordinates": [ -103.779, 30.226 ] } }
,
{ "type": "Feature", "id": 5577, "properties": { "pull_date": "3\/4\/11", "latitude": 36.637, "longitude": -96.267, "fire_name": "WEST", "fire_number": "OK-OSA-011035", "area": 1325.0, "report_date": "3\/2\/11" }, "geometry": { "type": "Point", "coordinates": [ -96.267, 36.637 ] } }
,
{ "type": "Feature", "id": 5578, "properties": { "pull_date": "3\/4\/11", "latitude": 29.684, "longitude": -81.328, "fire_name": "KELLER", "fire_number": "FL-FLS-2011-10-0155", "area": 1134.0, "report_date": "3\/3\/11" }, "geometry": { "type": "Point", "coordinates": [ -81.328, 29.684 ] } }
,
{ "type": "Feature", "id": 5579, "properties": { "pull_date": "3\/4\/11", "latitude": 29.429, "longitude": -81.689, "fire_name": "FERRY 7", "fire_number": "FL-FNF-0110018", "area": 682.0, "report_date": "3\/3\/11" }, "geometry": { "type": "Point", "coordinates": [ -81.689, 29.429 ] } }
,
{ "type": "Feature", "id": 5580, "properties": { "pull_date": "3\/4\/11", "latitude": 30.317, "longitude": -85.133, "fire_name": "GREGORY MILL", "fire_number": "FL-FNF-011017", "area": 589.4, "report_date": "3\/3\/11" }, "geometry": { "type": "Point", "coordinates": [ -85.133, 30.317 ] } }
,
{ "type": "Feature", "id": 5581, "properties": { "pull_date": "3\/4\/11", "latitude": 35.383, "longitude": -101.606, "fire_name": "WILLOW CREEK SOUTH COMPLEX", "fire_number": "TX-TXS-11025", "area": 24310.0, "report_date": "3\/3\/11" }, "geometry": { "type": "Point", "coordinates": [ -101.606, 35.383 ] } }
,
{ "type": "Feature", "id": 5582, "properties": { "pull_date": "3\/4\/11", "latitude": 32.097, "longitude": -101.167, "fire_name": "MITCHELL COUNTY COMPLEX", "fire_number": "TX-TXS-11033", "area": 13740.0, "report_date": "3\/3\/11" }, "geometry": { "type": "Point", "coordinates": [ -101.167, 32.097 ] } }
,
{ "type": "Feature", "id": 5583, "properties": { "pull_date": "3\/4\/11", "latitude": 32.138, "longitude": -100.164, "fire_name": "SHEPERDS COMPLEX", "fire_number": "TX-TFS-11026", "area": 7500.0, "report_date": "3\/3\/11" }, "geometry": { "type": "Point", "coordinates": [ -100.164, 32.138 ] } }
,
{ "type": "Feature", "id": 5584, "properties": { "pull_date": "3\/4\/11", "latitude": 29.832, "longitude": -93.911, "fire_name": "WF TEXAS POINT AIR LOG", "fire_number": "TX-MCR-000001", "area": 4160.0, "report_date": "3\/3\/11" }, "geometry": { "type": "Point", "coordinates": [ -93.911, 29.832 ] } }
,
{ "type": "Feature", "id": 5585, "properties": { "pull_date": "3\/4\/11", "latitude": 35.091, "longitude": -101.813, "fire_name": "TANGLEWOOD COMPLEX", "fire_number": "TX-TXS-11032", "area": 1659.0, "report_date": "3\/3\/11" }, "geometry": { "type": "Point", "coordinates": [ -101.813, 35.091 ] } }
,
{ "type": "Feature", "id": 5586, "properties": { "pull_date": "3\/4\/11", "latitude": 34.742, "longitude": -95.596, "fire_name": "PINETREE", "fire_number": "OK-ECU-11-20069", "area": 420.0, "report_date": "3\/3\/11" }, "geometry": { "type": "Point", "coordinates": [ -95.596, 34.742 ] } }
,
{ "type": "Feature", "id": 5587, "properties": { "pull_date": "3\/4\/11", "latitude": 32.286, "longitude": -101.669, "fire_name": "SULPHUR DRAW", "fire_number": "TX-TXS-11041", "area": 350.0, "report_date": "3\/3\/11" }, "geometry": { "type": "Point", "coordinates": [ -101.669, 32.286 ] } }
,
{ "type": "Feature", "id": 5588, "properties": { "pull_date": "3\/4\/11", "latitude": 33.016, "longitude": -87.471, "fire_name": "ROAD 751", "fire_number": "AL-ALF-00018", "area": 200.0, "report_date": "3\/3\/11" }, "geometry": { "type": "Point", "coordinates": [ -87.471, 33.016 ] } }
,
{ "type": "Feature", "id": 5589, "properties": { "pull_date": "3\/4\/11", "latitude": 26.987, "longitude": -81.49, "fire_name": "TAZMANIA", "fire_number": "FL-FLS-2011-16-0219", "area": 180.0, "report_date": "3\/3\/11" }, "geometry": { "type": "Point", "coordinates": [ -81.49, 26.987 ] } }
,
{ "type": "Feature", "id": 5590, "properties": { "pull_date": "3\/4\/11", "latitude": 36.351, "longitude": -94.999, "fire_name": "SPAVINAW HILL", "fire_number": "OK-NEU-11-30096", "area": 300.0, "report_date": "3\/3\/11" }, "geometry": { "type": "Point", "coordinates": [ -94.999, 36.351 ] } }
,
{ "type": "Feature", "id": 5591, "properties": { "pull_date": "3\/4\/11", "latitude": 34.653, "longitude": -95.603, "fire_name": "BIG TURNAROUND", "fire_number": "OK-ECU-11-20073", "area": 600.0, "report_date": "3\/3\/11" }, "geometry": { "type": "Point", "coordinates": [ -95.603, 34.653 ] } }
,
{ "type": "Feature", "id": 5592, "properties": { "pull_date": "3\/5\/11", "latitude": 28.742, "longitude": -80.966, "fire_name": "IRON HORSE", "fire_number": "FL-FLS-2011-12-0161", "area": 16715.0, "report_date": "3\/4\/11" }, "geometry": { "type": "Point", "coordinates": [ -80.966, 28.742 ] } }
,
{ "type": "Feature", "id": 5593, "properties": { "pull_date": "3\/5\/11", "latitude": 30.226, "longitude": -103.779, "fire_name": "MIND", "fire_number": "TX-TXS-11040", "area": 3000.0, "report_date": "3\/4\/11" }, "geometry": { "type": "Point", "coordinates": [ -103.779, 30.226 ] } }
,
{ "type": "Feature", "id": 5594, "properties": { "pull_date": "3\/5\/11", "latitude": 36.637, "longitude": -96.267, "fire_name": "WEST", "fire_number": "OK-OSA-011035", "area": 1325.0, "report_date": "3\/4\/11" }, "geometry": { "type": "Point", "coordinates": [ -96.267, 36.637 ] } }
,
{ "type": "Feature", "id": 5595, "properties": { "pull_date": "3\/5\/11", "latitude": 25.763, "longitude": -80.421, "fire_name": "TAMIAMI", "fire_number": "FL-FLS-2011-18-0082", "area": 430.0, "report_date": "3\/4\/11" }, "geometry": { "type": "Point", "coordinates": [ -80.421, 25.763 ] } }
,
{ "type": "Feature", "id": 5596, "properties": { "pull_date": "3\/5\/11", "latitude": 29.684, "longitude": -81.328, "fire_name": "KELLER", "fire_number": "FL-FLS-2011-10-0155", "area": 1134.0, "report_date": "3\/4\/11" }, "geometry": { "type": "Point", "coordinates": [ -81.328, 29.684 ] } }
,
{ "type": "Feature", "id": 5597, "properties": { "pull_date": "3\/5\/11", "latitude": 35.497, "longitude": -96.409, "fire_name": "IXL", "fire_number": "OK-ECU-42003", "area": 960.0, "report_date": "3\/4\/11" }, "geometry": { "type": "Point", "coordinates": [ -96.409, 35.497 ] } }
,
{ "type": "Feature", "id": 5598, "properties": { "pull_date": "3\/5\/11", "latitude": 29.429, "longitude": -81.689, "fire_name": "FERRY 7", "fire_number": "FL-FNF-0110018", "area": 682.0, "report_date": "3\/4\/11" }, "geometry": { "type": "Point", "coordinates": [ -81.689, 29.429 ] } }
,
{ "type": "Feature", "id": 5599, "properties": { "pull_date": "3\/5\/11", "latitude": 36.351, "longitude": -94.999, "fire_name": "SPAVINAW HILL", "fire_number": "OK-NEU-11-30096", "area": 300.0, "report_date": "3\/3\/11" }, "geometry": { "type": "Point", "coordinates": [ -94.999, 36.351 ] } }
,
{ "type": "Feature", "id": 5600, "properties": { "pull_date": "3\/5\/11", "latitude": 31.109, "longitude": -82.094, "fire_name": "CREWS ROAD", "fire_number": "GA-GAS-011006", "area": 2250.0, "report_date": "3\/2\/11" }, "geometry": { "type": "Point", "coordinates": [ -82.094, 31.109 ] } }
,
{ "type": "Feature", "id": 5601, "properties": { "pull_date": "3\/5\/11", "latitude": 30.317, "longitude": -85.133, "fire_name": "GREGORY MILL", "fire_number": "FL-FNF-011017", "area": 589.0, "report_date": "3\/4\/11" }, "geometry": { "type": "Point", "coordinates": [ -85.133, 30.317 ] } }
,
{ "type": "Feature", "id": 5602, "properties": { "pull_date": "3\/6\/11", "latitude": 36.637, "longitude": -96.267, "fire_name": "WEST", "fire_number": "OK-OSA-011035", "area": 1325.0, "report_date": "3\/4\/11" }, "geometry": { "type": "Point", "coordinates": [ -96.267, 36.637 ] } }
,
{ "type": "Feature", "id": 5603, "properties": { "pull_date": "3\/6\/11", "latitude": 29.684, "longitude": -81.328, "fire_name": "KELLER", "fire_number": "FL-FLS-2011-10-0155", "area": 1134.0, "report_date": "3\/5\/11" }, "geometry": { "type": "Point", "coordinates": [ -81.328, 29.684 ] } }
,
{ "type": "Feature", "id": 5604, "properties": { "pull_date": "3\/6\/11", "latitude": 29.429, "longitude": -81.689, "fire_name": "FERRY 7", "fire_number": "FL-FNF-0110018", "area": 698.0, "report_date": "3\/5\/11" }, "geometry": { "type": "Point", "coordinates": [ -81.689, 29.429 ] } }
,
{ "type": "Feature", "id": 5605, "properties": { "pull_date": "3\/6\/11", "latitude": 36.351, "longitude": -94.999, "fire_name": "SPAVINAW HILL", "fire_number": "OK-NEU-11-30096", "area": 300.0, "report_date": "3\/3\/11" }, "geometry": { "type": "Point", "coordinates": [ -94.999, 36.351 ] } }
,
{ "type": "Feature", "id": 5606, "properties": { "pull_date": "3\/6\/11", "latitude": 28.742, "longitude": -80.966, "fire_name": "IRON HORSE", "fire_number": "FL-FLS-2011-12-0161", "area": 16984.0, "report_date": "3\/5\/11" }, "geometry": { "type": "Point", "coordinates": [ -80.966, 28.742 ] } }
,
{ "type": "Feature", "id": 5607, "properties": { "pull_date": "3\/6\/11", "latitude": 30.226, "longitude": -103.779, "fire_name": "MIND", "fire_number": "TX-TXS-11040", "area": 8255.0, "report_date": "3\/5\/11" }, "geometry": { "type": "Point", "coordinates": [ -103.779, 30.226 ] } }
,
{ "type": "Feature", "id": 5608, "properties": { "pull_date": "3\/6\/11", "latitude": 35.497, "longitude": -96.409, "fire_name": "IXL", "fire_number": "OK-ECU-42003", "area": 960.0, "report_date": "3\/5\/11" }, "geometry": { "type": "Point", "coordinates": [ -96.409, 35.497 ] } }
,
{ "type": "Feature", "id": 5609, "properties": { "pull_date": "3\/6\/11", "latitude": 34.774, "longitude": -95.577, "fire_name": "BLUE MOUNTAIN HILTON", "fire_number": "OK-ECU-11-20082", "area": 650.0, "report_date": "3\/5\/11" }, "geometry": { "type": "Point", "coordinates": [ -95.577, 34.774 ] } }
,
{ "type": "Feature", "id": 5610, "properties": { "pull_date": "3\/6\/11", "latitude": 25.763, "longitude": -80.421, "fire_name": "TAMIAMI", "fire_number": "FL-FLS-2011-18-0082", "area": 430.0, "report_date": "3\/5\/11" }, "geometry": { "type": "Point", "coordinates": [ -80.421, 25.763 ] } }
,
{ "type": "Feature", "id": 5611, "properties": { "pull_date": "3\/6\/11", "latitude": 34.672, "longitude": -95.71, "fire_name": "TONGUESTONE", "fire_number": "OK-ECU-11-20081", "area": 300.0, "report_date": "3\/5\/11" },